List title,Artist full name,Latitude,Longitude,Tags keywords,tags keywords 2,Photo website,Neighborhood,Location,normalized tag
Levitated Stone (3 small frogs),David Phillips,42.36119752,-71.10773728,animal,frog; animal; outdoors; land; flora; fauna; nature,https://www.cambridgema.gov/-/media/Images/artscouncil/publicartwebsite/2021publicartmap/Phillips_LevitatedStones_10.JPG,Cambridgeport,Dana Park,animal
Quiet Cornerstone,Carlos Dorrien,42.37241715,-71.12049425,history,history; stone,https://www.cambridgema.gov/-/media/Images/artscouncil/publicartwebsite/2021publicartmap/Dorrien_CAC8608_QuietCornerstone.JPG,West Cambridge,Winthrop Park,history
Flag Gate (b),Virginia Gunther,42.39667267,-71.14301425,entryway,flag; metal; entryway,https://www.cambridgema.gov/-/media/Images/artscouncil/publicartwebsite/2021publicartmap/Gunther_CAC9705ab_FlagGate.JPG,North Cambridge,Minuteman Commuter Bikeway,entryway
A Public Display of Intervention (a),Adam Simha,42.36349796,-71.09826759,bench,bench; abstract; respite; seat; sit,https://www.cambridgema.gov/-/media/Images/artscouncil/publicartwebsite/2021publicartmap/CAC_15_01a_Simha.jpg,The Port,Charles O. Dance Jr. Square,bench
Spectrum,Michael Beatty,42.39234574,-71.12800006,mobile,hanging; mobile; abstract; shape,https://www.cambridgema.gov/-/media/Images/artscouncil/publicartwebsite/2021publicartmap/Beatty_CAC0101_Spectrum.jpg,North Cambridge,Peabody School,mobile
Untitled (Poetry Scrim),Rick Rawlins,42.36338507,-71.10012897,text,text; poetry; writing,https://www.cambridgema.gov/-/media/Images/artscouncil/publicartwebsite/2021publicartmap/Rawlins_Scrim.jpg,The Port,Lafayette Square,text
Salmones Salari (The Great Leaper),Andreas Von Huene,42.37540313,-71.13384441,water,water; fountain; fish; stone; ocean; water; sea; sea creature,https://www.cambridgema.gov/-/media/Images/artscouncil/publicartwebsite/2021publicartmap/VonHuene_CAC0404_SalmonSalari.JPG,West Cambridge,Lowell School Park,water
Alewife Portals,Carlos Dorrien,42.39679906,-71.14308431,entryway,stone; fish; entryway; biking; bike path,https://www.cambridgema.gov/-/media/Images/artscouncil/publicartwebsite/2021publicartmap/Dorrien_AlewifePortals.jpg,North Cambridge,Minuteman Commuter Bikeway,entryway
Untitled (Column with blue jay),William Reimann,42.36763102,-71.1149192,animal,bird; nature; animal; critter; creature,https://www.cambridgema.gov/-/media/Images/artscouncil/publicartwebsite/2021publicartmap/CAC_99_08_h_Reimann.jpg,Riverside,Corporal Burns Park,animal
Porter Square Landscape Design (Boulders),Toshihiro Katayama,42.38886891,-71.11930662,land design,abstract; land design; color; line; shape,https://www.cambridgema.gov/-/media/Images/artscouncil/publicartwebsite/2021publicartmap/Katayama_CAC0601_PorterSquareLandscapeDesign.jpg,North Cambridge,Porter Square Shopping Center,land design
Beach Fragments,David Phillips,42.36935174,-71.07557874,nature,beach; water; stone; nature; music; symbol; feet; hands; ocean; sea;,https://www.cambridgema.gov/-/media/Images/artscouncil/publicartwebsite/2021publicartmap/Phillips_CAC8603a_BeachFragments.JPG,East Cambridge,Lechmere Canal Park,nature
Inner City Totem I,Vusumuzi Maduna,42.36543405,-71.11116808,abstract,abstract; black artist; african art; history,https://www.cambridgema.gov/-/media/Images/artscouncil/publicartwebsite/2021publicartmap/Maduna_CAC8101_PerspectivePhoto.JPG,Riverside,Cambridge Community Center,abstract
Floating Stones (Block),Edward Levine,42.38723211,-71.13365114,abstract,stone; abstract; landscape,https://www.cambridgema.gov/-/media/Images/artscouncil/publicartwebsite/2021publicartmap/CAC_92_02_Levine.JPG,Neighborhood Nine,Roethlisberger Park,abstract
Jukebox,Elisa Hamilton,42.3671,-71.08252,community,community; stories; people; foundry,,East Cambridge,The Foundry,community
Untitled (Ladybird Beetle and Cloverleaf),Nancy Webb,42.36674076,-71.07644062,nature,insect; beetle; plant; flower; nature; tiny; treasure; look close,https://www.cambridgema.gov/-/media/Images/artscouncil/publicartwebsite/2021publicartmap/CAC_92_03_35_Webb.jpg,East Cambridge,Charles Park,nature
Drawn Water (Valve plate),Mags Harries & Lajos Heder,42.38238557,-71.11635368,water,water; swimming; play; spirit; fun,https://www.cambridgema.gov/-/media/Images/artscouncil/publicartwebsite/2021publicartmap/HarriesHeder_CAC0201u_Baldwin.JPG,Agassiz,Maria L. Baldwin Elementary School,water
Pole Climbers,Gene Cauthen,42.36493793,-71.09866566,community,history; neighborhood; community,https://www.cambridgema.gov/-/media/Images/artscouncil/publicartwebsite/2021publicartmap/Cauthen_CAC8606_PoleClimbers.jpg,The Port,Clement Morgan Park,community
Hearth,Ken Speiser,42.36613066,-71.09499245,bench,bench; brick; respite; seat; sit,https://www.cambridgema.gov/-/media/Images/artscouncil/publicartwebsite/2021publicartmap/speiser_cac0707ad_perspectivephoto.JPG,The Port,Greene-Rose Heritage Park,bench
Fletcher-Maynard Academy Mosaics,David Fichter,42.36703677,-71.0955866,community,community; children; education; cambridge,https://www.cambridgema.gov/-/media/Images/artscouncil/publicartwebsite/2021publicartmap/Fichter_CAC_Overall_PerspectivePhoto.JPG,,Fletcher Maynard Academy,community
Spiral (Snail),David Phillips,42.37216874,-71.11532146,insect,snail; nature; insect,https://www.cambridgema.gov/-/media/Images/artscouncil/publicartwebsite/2021publicartmap/Phillips_CAC970218_Spiral.jpg,Mid-Cambridge,Quincy Square,insect
Untitled (Owl),Juliet Kepes,42.39970798,-71.13259766,animal,bird; animal; wings; soar; fly; flight,https://www.cambridgema.gov/-/media/Images/artscouncil/publicartwebsite/2021publicartmap/Kepes_CAC8007a_PerspectivePhoto.JPG,North Cambridge,Clarendon Avenue Playground,animal
Untitled (Clover),Nancy Webb,42.36689967,-71.07648462,nature,plant; flower; nature; tiny; treasure; look close,https://www.cambridgema.gov/-/media/Images/artscouncil/publicartwebsite/2021publicartmap/CAC_92_03_18_Webb.jpg,East Cambridge,Charles Park,nature
Beach Fragments (f),David Phillips,42.36931992,-71.07560944,nature,beach; water; stone; nature; music; symbol; feet; hands; ocean; sea;,https://www.cambridgema.gov/-/media/Images/artscouncil/publicartwebsite/2021publicartmap/Phillips_CAC8603f_BeachFragments.JPG,East Cambridge,Lechmere Canal Park,nature
Sitting Coves,Lillian Hsu,42.39234383,-71.12800379,bench,color; seating; bench,https://www.cambridgema.gov/-/media/Images/artscouncil/publicartwebsite/2021publicartmap/Hsu_CAC0102a_SittingCoves.jpg,North Cambridge,Gately Youth Center,bench
Turtles (b),Lilli Ann Rosenberg,42.38283463,-71.1164841,animal,turtle; animal; ocean; water; sea; sea creature,https://www.cambridgema.gov/-/media/Images/artscouncil/publicartwebsite/2021publicartmap/CAC_82_04b_Rosenberg.jpg,Agassiz,Edward Alden Park,animal
The Late Flower Alphabet: Kyrie Gate,Murray Dewart,42.36781854,-71.11037121,abstract,garden; plant; grow; nurture; abstract; symbol; entryway,https://www.cambridgema.gov/-/media/Images/artscouncil/publicartwebsite/2021publicartmap/Dewart_TheLateFlowerAlphabet_c_KyrieGate.JPG,Riverside,Franklin Street Park,abstract
Floating Stones (Block),Edward Levine,42.3871868,-71.13367639,abstract,stone; abstract; landscape,https://www.cambridgema.gov/-/media/Images/artscouncil/publicartwebsite/2021publicartmap/CAC_92_02_Levine.JPG,Neighborhood Nine,Roethlisberger Park,abstract
Untitled (Pangea globe and Moroccan tile patterns),Nancy O'Neil,42.38234493,-71.11637995,light,"glass, color, light",https://www.cambridgema.gov/-/media/Images/artscouncil/publicartwebsite/2021publicartmap/CAC_96_01f_ONeil.JPG,Agassiz,Maria L. Baldwin Elementary School,light
Brickworker and Ballplayer (Brickworker),David Judelson,42.39055228,-71.12782085,community,brick; labor; baseball; community,https://www.cambridgema.gov/-/media/Images/artscouncil/publicartwebsite/2021publicartmap/Judelson_CAC8301a_PerspectivePhoto.JPG,North Cambridge,Rindge Field,community
Untitled (Praying Mantis),Nancy Webb,42.36610538,-71.07661488,nature,insect; mantis; nature; tiny; treasure; look close,https://www.cambridgema.gov/-/media/Images/artscouncil/publicartwebsite/2021publicartmap/CAC_92_03_4b_Webb.jpg,East Cambridge,Charles Park,nature
Drawn Water (Valve plate),Mags Harries & Lajos Heder,42.36293385,-71.10860868,water,water; swimming; diving; scuba; play; spirit; fun,https://www.cambridgema.gov/-/media/Images/artscouncil/publicartwebsite/2021publicartmap/HarriesHeder_CAC0201t_Amigos.JPG,Cambridgeport,The Amigos School,water
Town Green: Dog Walker/Coffee Break/Fire Hydrant,Michael Glier,42.37007904,-71.10338243,community,"about Cambridge; city; drawing, community; civic; government; democracy",https://www.cambridgema.gov/-/media/Images/artscouncil/publicartwebsite/2021publicartmap/Glier_04b_TownGreen_coffeebreak.jpg,Mid-Cambridge,City Hall Annex,community
Untitled (Flying dove and Algonquian wampum belt),Nancy O'Neil,42.38234493,-71.11637995,light,"glass, color, light",https://www.cambridgema.gov/-/media/Images/artscouncil/publicartwebsite/2021publicartmap/CAC_96_01b_ONeil.JPG,Agassiz,Maria L. Baldwin Elementary School,light
Untitled (Column with black crown night heron),William Reimann,42.36767988,-71.11605987,animal,bird; nature; animal; critter; creature,https://www.cambridgema.gov/-/media/Images/artscouncil/publicartwebsite/2021publicartmap/CAC_99_08_e_Reimann.JPG,Riverside,Corporal Burns Park,animal
Untitled (Dudley Street),William Reimann,42.39564067,-71.13042782,insect,butterfly; insect; entryway; wings; soar; fly; flight,https://www.cambridgema.gov/-/media/Images/artscouncil/publicartwebsite/2021publicartmap/CAC_01_04_Reimann.JPG,North Cambridge,Reverend Thomas J. Williams Park,insect
Levitated Stone (Small frog water fountain),David Phillips,42.36113272,-71.10764911,animal,frog; animal; fountain; outdoors; land; flora; fauna; nature,https://www.cambridgema.gov/-/media/Images/artscouncil/publicartwebsite/2021publicartmap/Phillips_LevitatedStones_13.JPG,Cambridgeport,Dana Park,animal
Spiral (Snail),David Phillips,42.37225325,-71.11523619,insect,snail; nature; insect,https://www.cambridgema.gov/-/media/Images/artscouncil/publicartwebsite/2021publicartmap/Phillips_CAC970214_Spiral.jpg,Mid-Cambridge,Quincy Square,insect
Untitled (Moses Youth Center Collaborative),Marc Cooper,42.3684011,-71.10075015,Abstract,abstract; shape; garden; surf,https://www.cambridgema.gov/-/media/Images/artscouncil/publicartwebsite/2021publicartmap/Cooper_Untitled_04.jpg,,Moses Youth Center,abstract
Spiral (Snail),David Phillips,42.37231848,-71.11562041,insect,snail; nature; insect,https://www.cambridgema.gov/-/media/Images/artscouncil/publicartwebsite/2021publicartmap/Phillips_CAC970221_Spiral.jpg,Mid-Cambridge,Quincy Square,insect
Untitled (Sun),Lilli Ann Rosenberg,42.37208319,-71.08729677,community,neighborhood; family; community; city; tree; nature; bird; animal; fish; sports; truck,https://www.cambridgema.gov/-/media/Images/artscouncil/publicartwebsite/2021publicartmap/CAC7905o_Rosenberg_MillersRiver_2019.JPG,East Cambridge,Millers River Apartments,community
The Lion King,Dominic Michael Killiany,42.38656,-71.136758,animals,painting; digifuse; color; shape; animal,,Neighborhood Nine,"Danehy Park, Louis A. DePasquale Universal Design Playground",animal
Centanni Way Garden Sculpture (Sunflower),Dimitri Gerakaris,42.37014688,-71.07915851,nature,metal; flower; plant; nature,https://www.cambridgema.gov/-/media/Images/artscouncil/publicartwebsite/2021publicartmap/Gerakaris_CAC8902_CentanniWayGardenSculpture_02.JPG,East Cambridge,Centanni Way Park/Bullfinch Sq,nature
Turnaround/Surround (Throne Room for the Queen and King of the Hill),Mierle Ukeles,42.38886959,-71.13546376,land design,gathering; land design; bench; abstract; biking; bike path,https://www.cambridgema.gov/-/media/Images/artscouncil/publicartwebsite/2021publicartmap/cac_99_10_2ab_ukeles.JPG,Neighborhood Nine,Danehy Park,land design
Room of Maps,"Alston """"Stoney"""" Conley",42.37060805,-71.10386923,map,map; drawing,https://www.cambridgema.gov/-/media/Images/artscouncil/publicartwebsite/2021publicartmap/Conley_CAC8303_RoomofMaps_crop.jpg,Mid-Cambridge,"King Open School (until 2020), the Ola Portuguese Dual Language Immersion Program",map
Project Adventure,Arnold Hurley,42.36652536,-71.09577289,play,people; color; play,https://www.cambridgema.gov/-/media/Images/artscouncil/publicartwebsite/2021publicartmap/Hurley_CAC8305ab_ProjectAdventure_PerspectivePhoto.JPG,The Port,Fletcher-Maynard Academy,play
Gore Field (b),Robert Schelling,42.37228735,-71.08337673,abstract,abstract; shape; entryway; play; spirit; fun,https://www.cambridgema.gov/-/media/Images/artscouncil/publicartwebsite/2021publicartmap/Schilling_CAC0606b_GoreField.JPG,East Cambridge,Gold Star Mothers Park,abstract
East Cambridge - 1852,George Greenamyer,42.36891254,-71.07891764,history,neighborhood; family; history; city; tiny; treasure; look close,https://www.cambridgema.gov/-/media/Images/artscouncil/publicartwebsite/2021publicartmap/Greenamyer_EastCambridge1852_02.JPG,East Cambridge,East Cambridge Parking Facility,history
Otter Fence,Gail Boyajian,42.37916705,-71.14296806,animal,animal; fence; creature; otter; critter,https://www.cambridgema.gov/-/media/Images/artscouncil/publicartwebsite/2021publicartmap/CAC_01_07_Boyajian.JPG,West Cambridge,Larch Road Park,animal
Town Green: Congregation/Pedestrians,Michael Glier,42.37007904,-71.10338243,community,"about Cambridge; city; drawing, community; civic; government; democracy",https://www.cambridgema.gov/-/media/Images/artscouncil/publicartwebsite/2021publicartmap/Glier_08a_TownGreen_congregation.jpg,Mid-Cambridge,City Hall Annex,community
Tower of East Cambridge Faces,James Tyler,42.36860328,-71.07479662,community,history; neighborhood; community,https://www.cambridgema.gov/-/media/Images/artscouncil/publicartwebsite/2021publicartmap/Tyler_CAC86_04.jpg,East Cambridge,Canal Park,community
Sidewalk Histories: Geneva Malenfent,Mike Mandel,42.35674987,-71.1087658,history,history; neighborhood; community,https://www.cambridgema.gov/-/media/Images/artscouncil/publicartwebsite/2021publicartmap/CAC_10_01_3_Mandel.jpg,Cambridgeport,Brookline Street (119-222 ),history
Spiral (Snail),David Phillips,42.37240972,-71.11572921,insect,snail; nature; insect,https://www.cambridgema.gov/-/media/Images/artscouncil/publicartwebsite/2021publicartmap/Phillips_CAC970222_Spiral.jpg,Mid-Cambridge,Quincy Square,insect
Taking Note,Mel Zeigler,42.37433328,-71.11155788,education,drawing; metal; education,https://www.cambridgema.gov/-/media/Images/artscouncil/publicartwebsite/2021publicartmap/Ziegler_CAC1302c_SalsaSidestep.JPG,Mid-Cambridge,Cambridge Rindge and Latin School,education
Yerxa Road Underpass (Tiled walls),Randal Thurston,42.39008611,-71.12925769,insect,insect; butterfly; wings; soar; fly; flight,https://www.cambridgema.gov/-/media/Images/artscouncil/publicartwebsite/2021publicartmap/CAC_06_03c_Thurston.JPG,North Cambridge,Yerxa Road Underpass,insect
Stone Work (Stone and bronze),David Phillips,42.36230087,-71.1152716,nature,stone; nature; outdoors; land; flora; fauna,https://www.cambridgema.gov/-/media/Images/artscouncil/publicartwebsite/2021publicartmap/Phillips_CAC8008a__StoneWork.JPG,Riverside,Riverside Press Park,nature
Artesian Well – A Portal to Sacramento Park’s Past,Bland Hoke,42.38289162,-71.11833867,bench,bench; blue; abstract; steel,https://www.cambridgema.gov/-/media/Images/artscouncil/publicartwebsite/2021publicartmap/Hoke_CAC17021_ArtesianWell.jpg,Agassiz,Sacramento Field,bench
Untitled (Birds),Juliet Kepes,42.39973069,-71.1326912,animal,bird; animal; wings; soar; fly; flight,https://www.cambridgema.gov/-/media/Images/artscouncil/publicartwebsite/2021publicartmap/Kepes_CAC8007_PerspectivePhoto.JPG,North Cambridge,Clarendon Avenue Playground,animal
Untitled (Bollard with arms crossed),Robin Shores,42.37061186,-71.10402458,children,body language; children,https://www.cambridgema.gov/-/media/Images/artscouncil/publicartwebsite/2021publicartmap/Shores_CAC8112c.JPG,Mid-Cambridge,"King Open School (until 2020), the Ola Portuguese Dual Language Immersion Program",children
Cambridge and its Watershed,Michele Turre,42.38345525,-71.14363237,water,water; about Cambridge; city,https://www.cambridgema.gov/-/media/Images/artscouncil/publicartwebsite/2021publicartmap/CAC_83_02_Turre.JPG,West Cambridge,City of Cambridge Water Department,water
Levitated Stone (Small frog water fountain),David Phillips,42.36113943,-71.10764503,animal,frog; animal; fountain; outdoors; land; flora; fauna; nature,https://www.cambridgema.gov/-/media/Images/artscouncil/publicartwebsite/2021publicartmap/Phillips_LevitatedStones_13.JPG,Cambridgeport,Dana Park,animal
Spiral (Wrought iron fence),David Phillips,42.37223576,-71.11518019,nature,snail; nature; insect,https://www.cambridgema.gov/-/media/Images/artscouncil/publicartwebsite/2021publicartmap/Phillips_CAC970224_Spiral.jpg,Mid-Cambridge,Quincy Square,nature
Rain's Rustle,Dominic Michael Killiany,42.38668,-71.136697,landscape,painting; digifuse; color; shape,,Neighborhood Nine,"Danehy Park, Louis A. DePasquale Universal Design Playground",landscape
Untitled (Rectangular group of animals),Lilli Ann Rosenberg,42.37211677,-71.08728471,community,neighborhood; family; community; city; tree; nature; bird; animal; fish; sports; truck,https://www.cambridgema.gov/-/media/Images/artscouncil/publicartwebsite/2021publicartmap/CAC7905k_RectangularGroupofAnimals02_Rosenberg_MillersRiver_2019.JPG,East Cambridge,Millers River Apartments,community
Untitled (Sleeping white cat),Jay Coogan,42.37130065,-71.0920829,animal,cats; dogs; animal; critter; creature,https://www.cambridgema.gov/-/media/Images/artscouncil/publicartwebsite/2021publicartmap/Coogan_CAC_05_02d_Untitled.JPG,Wellington-Harrington,Donnelly Field,animal
Fokin Memorial,Konstantin Simun,42.37324135,-71.12091954,community,play; memorial; gold; community; treasure; tiny; look close,https://www.cambridgema.gov/-/media/Images/artscouncil/publicartwebsite/2021publicartmap/CAC_01_05_Simun.JPG,West Cambridge,Brattle Square,community
Bird of Paradise,Dominic Michael Killiany,42.38662,-71.136919,animals,painting; digifuse; color; shape; animal,,Neighborhood Nine,"Danehy Park, Louis A. DePasquale Universal Design Playground",animal
Education is Liberation: Rosa Park,David Fichter,42.3629234,-71.1086647,history,people; education; political; history,https://www.cambridgema.gov/-/media/Images/artscouncil/publicartwebsite/2021publicartmap/Fitcher_EducationIsLiberation_05.JPG,Neighborhood Nine,Amigos School,history
Untitled (Honeybee and Coreopsis),Nancy Webb,42.36653122,-71.07648848,nature,insect; bee; plant; flower; nature; tiny; treasure; look close,https://www.cambridgema.gov/-/media/Images/artscouncil/publicartwebsite/2021publicartmap/CAC_92_03_29_Webb.jpg,East Cambridge,Charles Park,nature
Turnaround/Surround (Galaxy Dance Floor),Mierle Ukeles,42.38899209,-71.13541209,land design,play; space; land design; biking; bike path,https://www.cambridgema.gov/-/media/Images/artscouncil/publicartwebsite/2021publicartmap/CAC_99_10_3_Ukeles.jpg,Neighborhood Nine,Danehy Park,land design
Dana Park Quotes (M.L.King),John Powell,42.36147974,-71.10761232,history,political; text; writing; history,https://www.cambridgema.gov/-/media/Images/artscouncil/publicartwebsite/2021publicartmap/Powell_CAC07053_MLK.JPG,Cambridgeport,Dana Park,history
The Cantabrigians,Michael Oatman,42.38057422,-71.15383918,community,people; about Cambridge; community,https://www.cambridgema.gov/-/media/Images/artscouncil/publicartwebsite/2021publicartmap/CAC_09_03_Oatman.jpg,Strawberry Hill,The Russell Youth Center,community
The Bluefish is Good Tonight (a),Lisa Houck,42.37402961,-71.10102151,nature,water; fish; nature; abstract; ocean; water; sea; sea creature,https://www.cambridgema.gov/-/media/Images/artscouncil/publicartwebsite/2021publicartmap/Houck_TheBlueFishIsGoodTonight_02.JPG,Wellington-Harrington,Cambridge Health Alliance (Inman Square),nature
Alewife Portals (b),Carlos Dorrien,42.39681469,-71.14299999,entryway,stone; fish; entryway; biking; bike path,https://www.cambridgema.gov/-/media/Images/artscouncil/publicartwebsite/2021publicartmap/Dorrien_AlewifePortals_b.jpg,North Cambridge,Minuteman Commuter Bikeway,entryway
Beach Fragments (d),David Phillips,42.36935162,-71.0755228,nature,beach; water; stone; nature; music; symbol; feet; hands; ocean; sea;,https://www.cambridgema.gov/-/media/Images/artscouncil/publicartwebsite/2021publicartmap/Phillips_CAC8603d_BeachFragments.JPG,East Cambridge,Lechmere Canal Park,nature
Untitled (Yarrow and Planthopper),Nancy Webb,42.36687222,-71.07613812,nature,plant; flower; nature; insect; tiny; treasure; look close,https://www.cambridgema.gov/-/media/Images/artscouncil/publicartwebsite/2021publicartmap/CAC_92_03_17_Webb.jpg,East Cambridge,Charles Park,nature
Beacon of Color (e),Nancy Simonds,42.36868592,-71.07765427,abstract,abstract; shape; color,https://www.cambridgema.gov/-/media/Images/artscouncil/publicartwebsite/2021publicartmap/CAC_11_01e_Simonds.jpg,East Cambridge,First Street Garage,abstract
Spiral (Snail),David Phillips,42.37209485,-71.11515704,insect,snail; nature; insect,https://www.cambridgema.gov/-/media/Images/artscouncil/publicartwebsite/2021publicartmap/Phillips_CAC970209_Spiral.jpg,Mid-Cambridge,Quincy Square,insect
Taking Note: Zooplankton,Mel Zeigler,42.37433328,-71.11155788,education,drawing; metal; education,https://www.cambridgema.gov/-/media/Images/artscouncil/publicartwebsite/2021publicartmap/Ziegler_CAC1302e_Zooplankton.JPG,Mid-Cambridge,Cambridge Rindge and Latin School,education
Untitled (Coral Bells),Nancy Webb,42.36627641,-71.0765481,nature,plant; flower; nature; tiny; treasure; look close,https://www.cambridgema.gov/-/media/Images/artscouncil/publicartwebsite/2021publicartmap/CAC_92_03_12_Webb.jpg,East Cambridge,Charles Park,nature
Alley Cats (b),Judy McKie,42.37207379,-71.0901056,animal,bench; animal; cats; respite; seat; sit,https://www.cambridgema.gov/-/media/Images/artscouncil/publicartwebsite/2021publicartmap/McKie_CAC0501b_PerspectivePhoto.JPG,Wellington-Harrington,Cambridge Public Library-Valente Branch,animal
"Untitled (Cedar Street, north and south columns)",William Reimann,42.39527214,-71.13077535,insect,butterfly; insect; entryway; wings; soar; fly; flight,https://www.cambridgema.gov/-/media/Images/artscouncil/publicartwebsite/2021publicartmap/CAC_01_04c_Reimann.JPG,North Cambridge,Reverend Thomas J. Williams Park,insect
Floating Stones (Ground inlay),Edward Levine,42.38725101,-71.13357663,abstract,stone; abstract; landscape,https://www.cambridgema.gov/-/media/Images/artscouncil/publicartwebsite/2021publicartmap/CAC_92_02_Levine.JPG,Neighborhood Nine,Roethlisberger Park,abstract
The Late Flower Alphabet: Bright Morning,Murray Dewart,42.36770142,-71.11037392,abstract,abstract; symbol; garden; plant; grow; nurture,https://www.cambridgema.gov/-/media/Images/artscouncil/publicartwebsite/2021publicartmap/Dewart_TheLateFlowerAlphabet_b_BrightMorning.jpg,Riverside,Franklin Street Park,abstract
Untitled,Lilli Ann Rosenberg,42.37210767,-71.08728785,community,neighborhood; family; community; city; tree; nature; bird; animal; fish; sports; truck,https://www.cambridgema.gov/-/media/Images/artscouncil/publicartwebsite/2021publicartmap/CAC7905o_Rosenberg_MillersRiver_2019.JPG,East Cambridge,Millers River Apartments,community
Hearth (Brickwork),Ken Speiser,42.36613066,-71.09499245,bench,bench; brick; respite; seat; sit,https://www.cambridgema.gov/-/media/Images/artscouncil/publicartwebsite/2021publicartmap/speiser_cac0707ad_perspectivephoto.JPG,The Port,Greene-Rose Heritage Park,bench
Shadow Walk,Beth Galston,42.36674522,-71.09509001,abstract,abstract; metal,https://www.cambridgema.gov/-/media/Images/artscouncil/publicartwebsite/2021publicartmap/cac_84_03a_gregorywye.jpg,The Port,Greene-Rose Heritage Park,abstract
Untitled (Ground paver with turtles),William Reimann,42.36768533,-71.11612387,animal,turtle; nature; animal; critter; creature; swim; water,https://www.cambridgema.gov/-/media/Images/artscouncil/publicartwebsite/2021publicartmap/CAC_99_08_a_Reimann.jpg,Riverside,Corporal Burns Park,animal
Untitled (Boy with hat),Lilli Ann Rosenberg,42.37809388,-71.15233129,children,animal; color; play; kids; children; community,https://www.cambridgema.gov/-/media/Images/artscouncil/publicartwebsite/2021publicartmap/Rosenberg_CAC9506d_BoyHat_PerspectivePhoto.JPG,Strawberry Hill,Haggerty School,children
New Palmer (In-ground lights),Jody Pinto,42.37356843,-71.11999276,bench,bench; abstract,https://www.cambridgema.gov/-/media/Images/artscouncil/publicartwebsite/2021publicartmap/CAC_08_01_Pinto.JPG,West Cambridge,Harvard Square,bench
Dana Park Quotes (Fuller),John Powell,42.36129873,-71.10794003,history,political; text; writing; history,https://www.cambridgema.gov/-/media/Images/artscouncil/publicartwebsite/2021publicartmap/Powell_CAC07058_Fuller.JPG,Cambridgeport,Dana Park,history
Untitled (Earwig),Nancy Webb,42.36688527,-71.07640687,nature,insect; earwig; nature; tiny; treasure; look close,https://www.cambridgema.gov/-/media/Images/artscouncil/publicartwebsite/2021publicartmap/CAC_92_03_22_Webb.jpg,East Cambridge,Charles Park,nature
"Illumination Project - Robert W. Healy Public Safety Facility (7 lights, top row)",Krzysztof Wodiczko,42.36725135,-71.08588956,light,light; color; city; civic; dispatch; police,https://www.cambridgema.gov/-/media/Images/artscouncil/publicartwebsite/2021publicartmap/Wodiczko_CAC0902_IlluminationProject.JPG,East Cambridge,Robert W. Healy Public Safety Facility,light
Untitled (Column with kingfisher),William Reimann,42.36760858,-71.11485273,animal,bird; nature; animal; critter; creature,https://www.cambridgema.gov/-/media/Images/artscouncil/publicartwebsite/2021publicartmap/CAC_99_08_o_Reimann.JPG,Riverside,Corporal Burns Park,animal
Untitled (Boy with curly hair),Lilli Ann Rosenberg,42.37809388,-71.15233129,children,animal; color; play; kids; children; community,https://www.cambridgema.gov/-/media/Images/artscouncil/publicartwebsite/2021publicartmap/Rosenberg_CAC9506c_BoyCurly_PerspectivePhoto.JPG,Strawberry Hill,Haggerty School,children
Shadow Walk (a),Beth Galston,42.36674522,-71.09509001,abstract,abstract; metal,https://www.cambridgema.gov/-/media/Images/artscouncil/publicartwebsite/2021publicartmap/cac_84_03a_gregorywye.jpg,The Port,Greene-Rose Heritage Park,abstract
Untitled (Column with Canada goose),William Reimann,42.36760629,-71.11485283,animal,bird; nature; animal; critter; creature,https://www.cambridgema.gov/-/media/Images/artscouncil/publicartwebsite/2021publicartmap/CAC_99_08_n_Reimann.JPG,Riverside,Corporal Burns Park,animal
Pipe Dreams,NuVu Studio,42.38665,-71.13643,abstract,abstract; play; community,,Neighborhood Nine,Louis A. DePasquale Universal Design Playground,abstract
Untitled (Jumping Bird),Juliet Kepes,42.39973069,-71.1326912,animal,bird; animal; wings; soar; fly; flight,https://www.cambridgema.gov/-/media/Images/artscouncil/publicartwebsite/2021publicartmap/Kepes_CAC8007d_PerspectivePhoto.JPG,North Cambridge,Clarendon Avenue Playground,animal
Floating Stones (Block),Edward Levine,42.38727513,-71.13356518,abstract,stone; abstract; landscape,https://www.cambridgema.gov/-/media/Images/artscouncil/publicartwebsite/2021publicartmap/CAC_92_02_Levine.JPG,Neighborhood Nine,Roethlisberger Park,abstract
Artesian Well (Bench 1),Bland Hoke,42.38267377,-71.11834544,bench,bench; blue,https://www.cambridgema.gov/-/media/Images/artscouncil/publicartwebsite/2021publicartmap/Hoke_CAC17021_ArtesianWell.jpg,Agassiz,Sacramento Field,bench
Quake,Dewitt Godfrey,42.35855353,-71.10269679,abstract,abstract; entryway; biking; bike path,https://www.cambridgema.gov/-/media/Images/artscouncil/publicartwebsite/2021publicartmap/Godfrey_CA1503_Quake.JPG,Cambridgeport,Waverly Street Extension/ Waverly Path,abstract
This is Where We Saw the Eclipse,Lisa Houck,42.36674237,-71.10622028,nature,Trees; nature; abstract; color,https://www.cambridgema.gov/-/media/Images/artscouncil/publicartwebsite/2021publicartmap/Houck_CAC9502_WhereWeSawEclipse.jpg,Riverside,Cityside Senior Center,nature
Untitled (Coreopsis),Nancy Webb,42.36624022,-71.07661575,nature,plant; flower; nature; tiny; treasure; look close,https://www.cambridgema.gov/-/media/Images/artscouncil/publicartwebsite/2021publicartmap/CAC_92_03_8_Webb.jpg,East Cambridge,Charles Park,nature
Untitled (North Cambridge Senior Center Murals),David Fichter,42.39104443,-71.12292247,community,people; community; city; civic; society; seniors,https://www.cambridgema.gov/-/media/Images/artscouncil/publicartwebsite/2021publicartmap/Fichter_CAC8610_UntitledNorthCambridgeSeniorCenter.jpg,North Cambridge,North Cambridge Senior Center,community
Untitled (Cricket and Coral Beetle),Nancy Webb,42.36645947,-71.07637146,nature,insect; cricket; beetle; nature;,https://www.cambridgema.gov/-/media/Images/artscouncil/publicartwebsite/2021publicartmap/CAC_92_03_34_Webb.jpg,East Cambridge,Charles Park,nature
Turtles (c),Lilli Ann Rosenberg,42.38283393,-71.11649625,animal,turtle; animal; ocean; water; sea; sea creature,https://www.cambridgema.gov/-/media/Images/artscouncil/publicartwebsite/2021publicartmap/CAC_82_04a_Rosenberg.jpg,Agassiz,Edward Alden Park,animal
Floating Stones (Block),Edward Levine,42.38726604,-71.13362638,abstract,stone; abstract; landscape,https://www.cambridgema.gov/-/media/Images/artscouncil/publicartwebsite/2021publicartmap/CAC_92_02_Levine.JPG,Neighborhood Nine,Roethlisberger Park,abstract
Dana Park Quotes (Allston),John Powell,42.36141685,-71.10802435,history,political; text; writing; history,https://www.cambridgema.gov/-/media/Images/artscouncil/publicartwebsite/2021publicartmap/Powell_CAC07055_Allston.JPG,Cambridgeport,Dana Park,history
Untitled (Double helix and yellow ribbon),Nancy O'Neil,42.38234493,-71.11637995,light,"glass, color, light",https://www.cambridgema.gov/-/media/Images/artscouncil/publicartwebsite/2021publicartmap/CAC_96_01g_ONeil.JPG,Agassiz,Maria L. Baldwin Elementary School,light
Untitled (Small Walking Bird),Juliet Kepes,42.39971914,-71.13270287,animal,bird; animal; wings; soar; fly; flight,https://www.cambridgema.gov/-/media/Images/artscouncil/publicartwebsite/2021publicartmap/Kepes_CAC8007e_PerspectivePhoto.JPG,North Cambridge,Clarendon Avenue Playground,animal
Brickworker and Ballplayer (Ballplayer),David Judelson,42.39055228,-71.12782085,community,brick; labor; baseball; community,https://www.cambridgema.gov/-/media/Images/artscouncil/publicartwebsite/2021publicartmap/Judelson_CAC8301b_PerspectivePhoto.JPG,North Cambridge,Rindge Field,community
Chairs and Endless Lamps (Right lamp),John Tagiuri,42.36841159,-71.10067088,light,Egyption; light; respite; seat; sit,https://www.cambridgema.gov/-/media/Images/artscouncil/publicartwebsite/2021publicartmap/Tagiuri_ChairsAndEndlessLamps_rightlamp.JPG,The Port,Moses Youth Center,light
Untitled (Praying Mantis),Nancy Webb,42.36610562,-71.0766217,nature,insect; mantis; nature; tiny; treasure; look close,https://www.cambridgema.gov/-/media/Images/artscouncil/publicartwebsite/2021publicartmap/CAC_92_03_4a_Webb.jpg,East Cambridge,Charles Park,nature
"Untitled (4 keys, astrolabe, and computers)",Nancy O'Neil,42.38234493,-71.11637995,light,"glass, color, light",https://www.cambridgema.gov/-/media/Images/artscouncil/publicartwebsite/2021publicartmap/ONeil_CAC9601h_PerspectivePhoto.JPG,Agassiz,Maria L. Baldwin Elementary School,light
Untitled (Katydid),Nancy Webb,42.36688942,-71.07640617,nature,insect; katydid; nature; tiny; treasure; look close,https://www.cambridgema.gov/-/media/Images/artscouncil/publicartwebsite/2021publicartmap/CAC_92_03_21_Webb.jpg,East Cambridge,Charles Park,nature
Brickworker and Ballplayer,David Judelson,42.39055228,-71.12782085,community,brick; labor; baseball; community,https://www.cambridgema.gov/-/media/Images/artscouncil/publicartwebsite/2021publicartmap/Judelson_CAC8301_Overall_PerspectivePhoto.JPG,North Cambridge,Rindge Field,community
Porter Square Landscape Design (Long wall),Toshihiro Katayama,42.38880175,-71.1191964,land design,abstract; land design; color; line; shape,https://www.cambridgema.gov/-/media/Images/artscouncil/publicartwebsite/2021publicartmap/Katayama_CAC0601_PorterSquareLandscapeDesign.jpg,North Cambridge,Porter Square Shopping Center,land design
Filament/Firmament,Ellen Driscoll,42.3737744,-71.11040436,community,text; symbol; identity; community; activism; feminism,https://www.cambridgema.gov/-/media/Images/artscouncil/publicartwebsite/2021publicartmap/Driscoll_FilamentFirmament.jpg,Mid-Cambridge,Cambridge Main Public Library,community
Alewife Portals (a),Carlos Dorrien,42.39679906,-71.14308431,entryway,stone; fish; entryway; biking; bike path,https://www.cambridgema.gov/-/media/Images/artscouncil/publicartwebsite/2021publicartmap/Dorrien_AlewifePortals_a.JPG,North Cambridge,Minuteman Commuter Bikeway,entryway
Beacon of Color,Nancy Simonds,42.36871809,-71.07751555,abstract,abstract; shape; color,https://www.cambridgema.gov/-/media/Images/artscouncil/publicartwebsite/2021publicartmap/CAC_11_01_Simonds.JPG,East Cambridge,First Street Garage,abstract
Beach Fragments (e),David Phillips,42.36931876,-71.07555263,nature,beach; water; stone; nature; music; symbol; feet; hands; ocean; sea;,https://www.cambridgema.gov/-/media/Images/artscouncil/publicartwebsite/2021publicartmap/Phillips_CAC8603e_BeachFragments.JPG,East Cambridge,Lechmere Canal Park,nature
Gore Field (a),Robert Schelling,42.37228047,-71.08334508,abstract,abstract; shape; entryway; play; spirit; fun,https://www.cambridgema.gov/-/media/Images/artscouncil/publicartwebsite/2021publicartmap/Schilling_CAC0606a_GoreField.JPG,East Cambridge,Gold Star Mothers Park,abstract
Dot Matrix,Edwin Andrews,42.36414685,-71.10329853,abstract,abstract; shape; color; light; play,https://www.cambridgema.gov/-/media/Images/artscouncil/publicartwebsite/2021publicartmap/Andrews_CAC0404_DotMatrix.JPG,Cambridgeport,Green St. Garage,abstract
Town Green,Michael Glier,42.37007904,-71.10338243,community,"about Cambridge; city; drawing, community; civic; government; democracy",https://www.cambridgema.gov/-/media/Images/artscouncil/publicartwebsite/2021publicartmap/Glier_CAC0401_TownGreen.jpg,Mid-Cambridge,City Hall Annex,community
Untitled (Owl on Blue Background),György Kepes & Juliet Kepes,42.35613544,-71.11274432,animal,take flight; bird; animal,https://www.cambridgema.gov/-/media/Images/artscouncil/publicartwebsite/2021publicartmap/Kepes_UntitledOwlOnBlueBackground_01.JPG,Cambridgeport,Morse School,animal
Drawn Water (circle gate),Mags Harries & Lajos Heder,42.38356439,-71.14415737,water,water; view; play; spirit; fun,https://www.cambridgema.gov/-/media/Images/artscouncil/publicartwebsite/2021publicartmap/CAC_02_01e_HarriesMags_HeiderLajos_DrawnWater.jpg,West Cambridge,Walter Sullivan Water Facility,water
Spiral (Boulder with bronze inlay Harvard St.),David Phillips,42.37259118,-71.11584195,nature,snail; nature; insect,https://www.cambridgema.gov/-/media/Images/artscouncil/publicartwebsite/2021publicartmap/Phillips_CAC970204_Spiral.jpg,Mid-Cambridge,Quincy Square,nature
Untitled (Moses Youth Center Collaborative),Marc Cooper,42.36836603,-71.10073318,Abstract,abstract; shape; surf; garden,https://www.cambridgema.gov/-/media/Images/artscouncil/publicartwebsite/2021publicartmap/Cooper_Untitled_05.jpg,,Moses Youth Center,abstract
Beach Fragments (c),David Phillips,42.36938729,-71.07554708,nature,beach; water; stone; nature; music; symbol; feet; hands; ocean; sea;,https://www.cambridgema.gov/-/media/Images/artscouncil/publicartwebsite/2021publicartmap/Phillips_CAC8603c_BeachFragments.JPG,East Cambridge,Lechmere Canal Park,nature
Levitated Stone (Dragonflies/inlay),David Phillips,42.36117321,-71.10766133,nature,nature; dragonfly; insect; frog; animal; fountain; water; tree; branch; stone; outdoors; land; flora; fauna,https://www.cambridgema.gov/-/media/Images/artscouncil/publicartwebsite/2021publicartmap/Phillips_LevitatedStones_18.JPG,Cambridgeport,Dana Park,nature
Untitled (Column with starling),William Reimann,42.36765816,-71.11492154,animal,bird; nature; animal; critter; creature,https://www.cambridgema.gov/-/media/Images/artscouncil/publicartwebsite/2021publicartmap/CAC_99_08_j_Reimann.jpg,Riverside,Corporal Burns Park,animal
Beacon of Color (d),Nancy Simonds,42.36868845,-71.07767186,abstract,abstract; shape; color,https://www.cambridgema.gov/-/media/Images/artscouncil/publicartwebsite/2021publicartmap/CAC_11_01d_Simonds.jpg,East Cambridge,First Street Garage,abstract
Gore Field (g),Robert Schelling,42.37246997,-71.08458351,abstract,abstract; sports; baseball; shape; entrayway; play; spirit; fun,https://www.cambridgema.gov/-/media/Images/artscouncil/publicartwebsite/2021publicartmap/Schilling_CAC0606g_GoreField.JPG,East Cambridge,Gold Star Mothers Park,abstract
Untitled (Upright white dog),Jay Coogan,42.37126757,-71.0920295,animal,cats; dogs; animal; critter; creature,https://www.cambridgema.gov/-/media/Images/artscouncil/publicartwebsite/2021publicartmap/Coogan_CAC0502a_Untitled.JPG,Wellington-Harrington,Donnelly Field,animal
Untitled (Daylily Bud and Katydid),Nancy Webb,42.36644739,-71.07633812,nature,insect; katydid; plant; flower; nature; tiny; treasure; look close,https://www.cambridgema.gov/-/media/Images/artscouncil/publicartwebsite/2021publicartmap/CAC_92_03_30_Webb.jpg,East Cambridge,Charles Park,nature
Alley Cats (a),Judy McKie,42.37210986,-71.08997838,animal,bench; animal; cats; respite; seat; sit,https://www.cambridgema.gov/-/media/Images/artscouncil/publicartwebsite/2021publicartmap/McKie_CAC0501a_PerspectivePhoto.JPG,Wellington-Harrington,Cambridge Public Library-Valente Branch,animal
Untitled (Bollard with shoes),Robin Shores,42.3704843,-71.10377503,children,feet; shoes; children,https://www.cambridgema.gov/-/media/Images/artscouncil/publicartwebsite/2021publicartmap/Shores_CAC8112d.JPG,Mid-Cambridge,"King Open School (until 2020), the Ola Portuguese Dual Language Immersion Program",children
A Public Display of Intervention,Adam Simha,42.36343842,-71.09825719,bench,bench; abstract; respite; seat; sit,https://www.cambridgema.gov/-/media/Images/artscouncil/publicartwebsite/2021publicartmap/CAC_15_01b_Simha.jpg,The Port,Charles O. Dance Jr. Square,bench
Anxiety of Beauty: Revisiting the Fountain of Youth,Mela Lyman,42.37091361,-71.10157897,water,water; swimming; children; cloud; color; history; landscape; mythology,https://www.cambridgema.gov/-/media/Images/artscouncil/publicartwebsite/2021publicartmap/CAC_09_01_Lyman.JPG,Mid-Cambridge,Paine Park,water
Untitled,Linda Lichtman,42.36386897,-71.10361901,light,glass; color; light,https://www.cambridgema.gov/-/media/Images/artscouncil/publicartwebsite/2021publicartmap/CAC_80_01_Lichtman.JPG,Cambridgeport,Central Square Branch Library,light
Stop-Action-Frieze,Jay Coogan,42.37127656,-71.09213263,play,play; sports,https://www.cambridgema.gov/-/media/Images/artscouncil/publicartwebsite/2021publicartmap/Coogan_CAC9701_StopActionFrieze.jpg,Wellington-Harrington,Frisoli Youth Center,play
Chairs and Endless Lamps (Left lamp),John Tagiuri,42.36842351,-71.10076824,light,Egyption; light; respite; seat; sit,https://www.cambridgema.gov/-/media/Images/artscouncil/publicartwebsite/2021publicartmap/Tagiuri_ChairsAndEndlessLamps_leftlamp.jpg,The Port,Moses Youth Center,light
Untitled (Chicory and Bumble Bee),Nancy Webb,42.36687579,-71.07614083,nature,insect; bee; plant; flower; nature; tiny; treasure; look close,https://www.cambridgema.gov/-/media/Images/artscouncil/publicartwebsite/2021publicartmap/CAC_92_03_25_Webb.jpg,East Cambridge,Charles Park,nature
Untitled,Lilli Ann Rosenberg,42.37809388,-71.15233129,children,animal; color; play; kids; children; community,https://www.cambridgema.gov/-/media/Images/artscouncil/publicartwebsite/2021publicartmap/Rosenberg_CAC9506ad_Kids_PerspectivePhoto.JPG,Strawberry Hill,Haggerty School,children
Levitated Stone (Small frog water fountain),David Phillips,42.36113753,-71.10763928,animal,frog; animal; fountain; outdoors; land; flora; fauna; nature,https://www.cambridgema.gov/-/media/Images/artscouncil/publicartwebsite/2021publicartmap/Phillips_LevitatedStones_13.JPG,Cambridgeport,Dana Park,animal
Untitled (Moses Youth Center Collaborative),Marc Cooper,42.36838327,-71.10072199,Abstract,abstract; garden; surf; shape,https://www.cambridgema.gov/-/media/Images/artscouncil/publicartwebsite/2021publicartmap/Cooper_Untitled_03.jpg,,Moses Youth Center,abstract
Drawn Water (Valve plate),Mags Harries & Lajos Heder,42.3559951,-71.11190557,water,water; puddle play; spirit; fun,https://www.cambridgema.gov/-/media/Images/artscouncil/publicartwebsite/2021publicartmap/HarriesHeder_CAC0201q_Morse.jpg,Cambridgeport,Morse Elementary School,water
Spiral (Wrought iron fence),David Phillips,42.37208381,-71.11527358,nature,snail; nature; insect,https://www.cambridgema.gov/-/media/Images/artscouncil/publicartwebsite/2021publicartmap/Phillips_CAC970223_Spiral.jpg,Mid-Cambridge,Quincy Square,nature
Town Green: Ivy/Sky,Michael Glier,42.37007904,-71.10338243,community,"about Cambridge; city; drawing, community; civic; government; democracy",https://www.cambridgema.gov/-/media/Images/artscouncil/publicartwebsite/2021publicartmap/Glier_07b_TownGreen_sky.jpg,Mid-Cambridge,City Hall Annex,community
Never Green Tree,William Wainwright,42.36975334,-71.07576661,abstract,kinetic; abstract; tree; wings; soar; fly; flight,https://www.cambridgema.gov/-/media/Images/artscouncil/publicartwebsite/2021publicartmap/CAC_87_01_Wainwright.JPG,East Cambridge,Canal Park,abstract
Yerxa Road Underpass,Randal Thurston,42.39008611,-71.12925769,animal,"bird; insect, butterfly, animal; wings; soar; fly; flight",https://www.cambridgema.gov/-/media/Images/artscouncil/publicartwebsite/2021publicartmap/CAC_06_03a_Thurston.jpg,North Cambridge,Yerxa Road Underpass,animal
Beacon of Color (k),Nancy Simonds,42.36900761,-71.07741914,abstract,abstract; shape; color,https://www.cambridgema.gov/-/media/Images/artscouncil/publicartwebsite/2021publicartmap/CAC_11_01k_Simonds.JPG,East Cambridge,First Street Garage,abstract
Untitled (Column with cormorant),William Reimann,42.36765508,-71.11606307,animal,bird; nature; animal; critter; creature,https://www.cambridgema.gov/-/media/Images/artscouncil/publicartwebsite/2021publicartmap/CAC_99_08_c_Reimann.JPG,Riverside,Corporal Burns Park,animal
Stroll After the Rain,Dominic Michael Killiany,42.386615,-71.136713,landscape,painting; digifuse; color; shape,,Neighborhood Nine,"Danehy Park, Louis A. DePasquale Universal Design Playground",landscape
Yerxa Road Underpass (Archway- south trellis),Randal Thurston,42.39001817,-71.12927432,animal,bird; animal; wings; soar; fly; flight,https://www.cambridgema.gov/-/media/Images/artscouncil/publicartwebsite/2021publicartmap/CAC_06_03d_Thurston.JPG,Neighborhood Nine,Yerxa Road Underpass,animal
Untitled (Rooster on Blue Background),György Kepes & Juliet Kepes,42.35613782,-71.11274454,animal,tile; take flight; animal; nature; color,https://www.cambridgema.gov/-/media/Images/artscouncil/publicartwebsite/2021publicartmap/Kepes_UntitledRoosterOnBlueBackground_07.JPG,Cambridgeport,Morse School,animal
Here and There,Roberley Bell,42.36765135,-71.07980956,nature,plant; nature; squash; garden; grow; nurture,https://www.cambridgema.gov/-/media/Images/artscouncil/publicartwebsite/2021publicartmap/Bell_CAC0803ad_HereAndThere.JPG,East Cambridge,Costa Lopez Taylor Park and Community Garden,nature
Stone Work (Bronze and stone),David Phillips,42.36229334,-71.11525714,nature,stone; nature; outdoors; land; flora; fauna,https://www.cambridgema.gov/-/media/Images/artscouncil/publicartwebsite/2021publicartmap/Phillips_CAC8008b_StoneWork.JPG,Riverside,Riverside Press Park,nature
Untitled (Chicory),Nancy Webb,42.36686877,-71.07609679,nature,plant; flower; nature; tiny; treasure; look close,https://www.cambridgema.gov/-/media/Images/artscouncil/publicartwebsite/2021publicartmap/CAC_92_03_26_Webb.jpg,East Cambridge,Charles Park,nature
Untitled (Dogs and Cats),Jay Coogan,42.37136067,-71.0921941,animal,cats; dogs; animal; critter; creature,https://www.cambridgema.gov/-/media/Images/artscouncil/publicartwebsite/2021publicartmap/Coogan_CAC0502a_Untitled.JPG,Wellington-Harrington,Donnelly Field,animal
The Bluefish is Good Tonight (b),Lisa Houck,42.37404871,-71.10102106,nature,water; fish; nature; abstract; ocean; water; sea; sea creature,https://www.cambridgema.gov/-/media/Images/artscouncil/publicartwebsite/2021publicartmap/CAC_87_07_Houck.JPG,Wellington-Harrington,Cambridge Health Alliance (Inman Square),nature
Spiral (Wrought iron fence),David Phillips,42.37236255,-71.11567132,nature,snail; nature; insect,https://www.cambridgema.gov/-/media/Images/artscouncil/publicartwebsite/2021publicartmap/Phillips_CAC970226_Spiral.jpg,Mid-Cambridge,Quincy Square,nature
Untitled (Daylily),Nancy Webb,42.36646487,-71.07650372,nature,plant; flower; nature; tiny; treasure; look close,https://www.cambridgema.gov/-/media/Images/artscouncil/publicartwebsite/2021publicartmap/CAC_92_03_13_Webb.jpg,East Cambridge,Charles Park,nature
Patchwork Oasis,Jane Goldman,42.39348573,-71.13098306,abstract,abstract,https://www.cambridgema.gov/-/media/Images/artscouncil/publicartwebsite/2021publicartmap/cac_01_03ae_goldman.JPG,North Cambridge,James F. Walsh Square,abstract
Town Green: Dutchman’s Pipe,Michael Glier,42.37007904,-71.10338243,community,"about Cambridge; city; drawing, community; civic; government; democracy",https://www.cambridgema.gov/-/media/Images/artscouncil/publicartwebsite/2021publicartmap/Glier_01a_TownGreen_dutchmanspipe.jpg,Mid-Cambridge,City Hall Annex,community
Spiral (Snail),David Phillips,42.37223417,-71.1152418,insect,snail; nature; insect,https://www.cambridgema.gov/-/media/Images/artscouncil/publicartwebsite/2021publicartmap/Phillips_CAC970215_Spiral.jpg,Mid-Cambridge,Quincy Square,insect
Beat the Belt,Bernard LaCasse,42.35701503,-71.11376548,community,history; political; neighborhood; protest; community; activism,https://www.cambridgema.gov/-/media/Images/artscouncil/publicartwebsite/2021publicartmap/Lacasse_CAC8009_BeatTheBelt.JPG,Cambridgeport,Microcenter (Building),community
Untitled (Column with mallard duck),William Reimann,42.36742851,-71.11488724,animal,bird; nature; animal; critter; creature,https://www.cambridgema.gov/-/media/Images/artscouncil/publicartwebsite/2021publicartmap/CAC_99_08_t_Reimann.JPG,Riverside,Corporal Burns Park,animal
Untitled (Fish),Lilli Ann Rosenberg,42.37208352,-71.08729886,community,neighborhood; family; community; city; tree; nature; bird; animal; fish; sports; truck,https://www.cambridgema.gov/-/media/Images/artscouncil/publicartwebsite/2021publicartmap/CAC7905p_Fish_Rosenberg_MillersRiver_2019.JPG,East Cambridge,Millers River Apartments,community
Taking Note: Salsa Sidestep,Mel Zeigler,42.37433328,-71.11155788,education,drawing; metal; education,https://www.cambridgema.gov/-/media/Images/artscouncil/publicartwebsite/2021publicartmap/Ziegler_CAC1302c_SalsaSidestep.JPG,Mid-Cambridge,Cambridge Rindge and Latin School,education
Untitled (Column with crow),William Reimann,42.36760662,-71.11488136,animal,bird; nature; animal; critter; creature,https://www.cambridgema.gov/-/media/Images/artscouncil/publicartwebsite/2021publicartmap/CAC_99_08_m_Reimann.JPG,Riverside,Corporal Burns Park,animal
Drawn Water (outdoor drinking fountain),Mags Harries & Lajos Heder,42.3835098,-71.14404916,water,water; fountain; play; spirit; fun,https://www.cambridgema.gov/-/media/Images/artscouncil/publicartwebsite/2021publicartmap/CAC_02_01a_HarriesMags_HeiderLajos_DrawnWater.jpg,West Cambridge,Walter Sullivan Water Facility,water
Untitled (Column with great blue heron),William Reimann,42.36742677,-71.11488743,animal,bird; nature; animal; critter; creature,https://www.cambridgema.gov/-/media/Images/artscouncil/publicartwebsite/2021publicartmap/CAC_99_08_s_Reimann.JPG,Riverside,Corporal Burns Park,animal
Revolutionary Figures,Madeleine Lord,42.35654535,-71.10419787,history,history; revolution; metal; activism,https://www.cambridgema.gov/-/media/Images/artscouncil/publicartwebsite/2021publicartmap/Lord_CAC87041_RevolutionaryFigures.JPG,Cambridgeport,Fort Washington Park,history
Taking Note: Sun-Photic Zone,Mel Zeigler,42.37452593,-71.11120748,school,sun; drawing; metal; school,https://www.cambridgema.gov/-/media/Images/artscouncil/publicartwebsite/2021publicartmap/Ziegler_CAC1302a_SunPhotic.JPG,Mid-Cambridge,Cambridge Rindge and Latin School,school
"Untitled (Dudley Street, east and west columns)",William Reimann,42.3958974,-71.13048177,insect,butterfly; insect; entryway; wings; soar; fly; flight,https://www.cambridgema.gov/-/media/Images/artscouncil/publicartwebsite/2021publicartmap/CAC_01_04a_Reimann.JPG,North Cambridge,Reverend Thomas J. Williams Park,insect
Floating Stones (Block),Edward Levine,42.3872294,-71.13361038,abstract,stone; abstract; landscape,https://www.cambridgema.gov/-/media/Images/artscouncil/publicartwebsite/2021publicartmap/CAC_92_02_Levine.JPG,Neighborhood Nine,Roethlisberger Park,abstract
Artesian Well (Bench 2),Bland Hoke,42.38289162,-71.11833867,bench,bench; blue,https://www.cambridgema.gov/-/media/Images/artscouncil/publicartwebsite/2021publicartmap/Hoke_CAC17022_ArtesianWell.jpg,Agassiz,Sacramento Field,bench
Gate House,Lloyd Hamrol,42.36518135,-71.07668956,abstract,color; metal; abstract,https://www.cambridgema.gov/-/media/Images/artscouncil/publicartwebsite/2021publicartmap/Hamrol_CAC_86_09ac_GateHouse.jpg,East Cambridge,Front Park,abstract
Altered Benches,Laura Evans,42.36596518,-71.09487638,bench,bench; plant; vine; water; plumbing; respite; seat; sit,https://www.cambridgema.gov/-/media/Images/artscouncil/publicartwebsite/2021publicartmap/Evans_AlteredBenches_b.JPG,The Port,Greene-Rose Heritage Park,bench
"Untitled (Dandelions, Fritillary Butterfly, Prionus Beetle)",Nancy Webb,42.366094,-71.07657403,nature,insect; butterfly; beetle; plant; flower; nature; tiny; treasure; look close,https://www.cambridgema.gov/-/media/Images/artscouncil/publicartwebsite/2021publicartmap/CAC_92_03_7_Webb.jpg,East Cambridge,Charles Park,nature
One Seasonal Cycle in a Temperate Zone (Spring) (Summer),Lisa Houck,42.36673916,-71.10622013,nature,Trees; nature; abstract; color; outdoors; land; flora; fauna,https://www.cambridgema.gov/-/media/Images/artscouncil/publicartwebsite/2021publicartmap/Houck_CAC9591ab_OneSeason.jpg,Riverside,Cityside Senior Center,nature
Untitled (Butterfly),Lilli Ann Rosenberg,42.37809388,-71.15233129,children,animal; color; play; kids; children; community,https://www.cambridgema.gov/-/media/Images/artscouncil/publicartwebsite/2021publicartmap/Rosenberg_CAC9506a_Butterfly_PerspectivePhoto.JPG,Strawberry Hill,Haggerty School,children
Untitled (Birds on Red Background),György Kepes & Juliet Kepes,42.3561355,-71.1127444,animal,take flight; animal,https://www.cambridgema.gov/-/media/Images/artscouncil/publicartwebsite/2021publicartmap/Kepes_UntitledBirdsOnRedBackground_04.JPG,Cambridgeport,Morse School,animal
Evening in the Park,Dominic Michael Killiany,42.38705,-71.13689,landscape,painting; digifuse; color; shape,,Neighborhood Nine,"Danehy Park, Louis A. DePasquale Universal Design Playground",landscape
Beacon of Color (c),Nancy Simonds,42.36869138,-71.07769421,abstract,abstract; shape; color,https://www.cambridgema.gov/-/media/Images/artscouncil/publicartwebsite/2021publicartmap/CAC_11_01c_Simonds.jpg,East Cambridge,First Street Garage,abstract
Gore Field (f),Robert Schelling,42.37247857,-71.08461014,abstract,abstract; shape; entryway; play; spirit; fun,https://www.cambridgema.gov/-/media/Images/artscouncil/publicartwebsite/2021publicartmap/Schilling_CAC0606f_GoreField.JPG,East Cambridge,Gold Star Mothers Park,abstract
Gore Field (e),Robert Schelling,42.37291417,-71.08281457,abstract,abstract; shape; entryway; play; spirit; fun,https://www.cambridgema.gov/-/media/Images/artscouncil/publicartwebsite/2021publicartmap/Schilling_CAC0606e_GoreField.JPG,East Cambridge,Gold Star Mothers Park,abstract
Altered Benches (a),Laura Evans,42.36596518,-71.09487638,bench,bench; plant; vine; respite; seat; sit,https://www.cambridgema.gov/-/media/Images/artscouncil/publicartwebsite/2021publicartmap/Evans_AlteredBenches_a.JPG,The Port,Greene-Rose Heritage Park,bench
The Librarian Speaks,Liam Gillick,42.37375216,-71.11161389,text,text; color; speech; library; language; typography,https://www.cambridgema.gov/-/media/Images/artscouncil/publicartwebsite/2021publicartmap/Gillick_CAC0905_TheLibrarianSpeaks.JPG,Mid-Cambridge,Cambridge Main Public Library,text
Untitled (Green tree),Lilli Ann Rosenberg,42.37210767,-71.08728785,community,neighborhood; family; community; city; tree; nature; bird; animal; fish; sports; truck,https://www.cambridgema.gov/-/media/Images/artscouncil/publicartwebsite/2021publicartmap/CAC7905l_GreenTree_Rosenberg_MillersRiver_2019.JPG,East Cambridge,Millers River Apartments,community
Beacon of Color (h),Nancy Simonds,42.36867587,-71.07757947,abstract,abstract; shape; color,https://www.cambridgema.gov/-/media/Images/artscouncil/publicartwebsite/2021publicartmap/CAC_11_01h_Simonds_.jpg,East Cambridge,First Street Garage,abstract
New Palmer (Benches),Jody Pinto,42.37356843,-71.11999276,bench,bench; abstract,https://www.cambridgema.gov/-/media/Images/artscouncil/publicartwebsite/2021publicartmap/CAC_08_01_Pinto.JPG,West Cambridge,Harvard Square,bench
Dana Park Quotes (Dana),John Powell,42.36140107,-71.10754703,history,political; text; writing; history,https://www.cambridgema.gov/-/media/Images/artscouncil/publicartwebsite/2021publicartmap/Powell_CAC07052_Dana.JPG,Cambridgeport,Dana Park,history
Spiral (Snail),David Phillips,42.3720448,-71.11517077,insect,snail; nature; insect,https://www.cambridgema.gov/-/media/Images/artscouncil/publicartwebsite/2021publicartmap/Phillips_CAC970208_Spiral.jpg,Mid-Cambridge,Quincy Square,insect
Untitled (Moon with Branches),György Kepes & Juliet Kepes,42.35613532,-71.11274296,nature,nature; tree; color,https://www.cambridgema.gov/-/media/Images/artscouncil/publicartwebsite/2021publicartmap/Kepes_UntitledMoonwithBranches_01.JPG,Cambridgeport,Morse School,nature
Celebrating the Marshland (a),Lilli Ann Rosenberg,42.36374053,-71.10373391,nature,nature; beach; wetland; outdoors; land; flora; fauna,https://www.cambridgema.gov/-/media/Images/artscouncil/publicartwebsite/2021publicartmap/CAC_82_03_Rosenberg.JPG,Cambridgeport,Cambridge Public Library- Central Square Branch,nature
Altered Benches (b),Laura Evans,42.36595818,-71.09491816,bench,bench; water; plumbing; respite; seat; sit,https://www.cambridgema.gov/-/media/Images/artscouncil/publicartwebsite/2021publicartmap/Evans_AlteredBenches_b.JPG,The Port,Greene-Rose Heritage Park,bench
"Taking Note: Movement """"10 Seconds""""",Mel Zeigler,42.37433328,-71.11155788,education,drawing; metal; education,https://www.cambridgema.gov/-/media/Images/artscouncil/publicartwebsite/2021publicartmap/Ziegler_CAC1302f_Movement.JPG,Mid-Cambridge,Cambridge Rindge and Latin School,education
Spiral (Snail),David Phillips,42.37220453,-71.11512585,insect,snail; nature; insect,https://www.cambridgema.gov/-/media/Images/artscouncil/publicartwebsite/2021publicartmap/Phillips_CAC970212_Spiral.jpg,Mid-Cambridge,Quincy Square,insect
Spiral (Boulder with bronze inlay Mass. Ave),David Phillips,42.37220976,-71.1153365,nature,snail; nature; insect,https://www.cambridgema.gov/-/media/Images/artscouncil/publicartwebsite/2021publicartmap/Phillips_CAC970203_Spiral.JPG,Mid-Cambridge,Quincy Square,nature
Untitled (Moses Youth Center Collaborative),Marc Cooper,42.36837732,-71.10068712,Abstract,abstract; garden; surf,https://www.cambridgema.gov/-/media/Images/artscouncil/publicartwebsite/2021publicartmap/Cooper_Untitled_02.jpg,,Moses Youth Center,abstract
Sidewalk Histories: Simplex,Mike Mandel,42.35926191,-71.10593716,history,history; neighborhood; community,https://www.cambridgema.gov/-/media/Images/artscouncil/publicartwebsite/2021publicartmap/CAC_10_01_6_Mandel.jpg,Cambridgeport,Brookline Street (119-222 ),history
Untitled (House),Lilli Ann Rosenberg,42.37209777,-71.08729075,community,neighborhood; family; community; city; tree; nature; bird; animal; fish; sports; truck,https://www.cambridgema.gov/-/media/Images/artscouncil/publicartwebsite/2021publicartmap/CAC7905m_Buildings_Rosenberg_MillersRiver_2019.JPG,East Cambridge,Millers River Apartments,community
Chairs and Endless Lamps (Chairs and stairs),John Tagiuri,42.3683983,-71.10071138,bench,bench; red; gathering; respite; seat; sit,https://www.cambridgema.gov/-/media/Images/artscouncil/publicartwebsite/2021publicartmap/Tagiuri_ChairsAndEndlessLamps_Overall.jpg,The Port,Moses Youth Center,bench
Turnaround/Surround (Wavers and Smellers),Mierle Ukeles,42.38883904,-71.13522092,land design,plant; nature; garden; land design; biking; bike path,https://www.cambridgema.gov/-/media/Images/artscouncil/publicartwebsite/2021publicartmap/CAC_99_10_5_Ukeles.JPG,Neighborhood Nine,Danehy Park,land design
Dana Park Quotes (Bergman),John Powell,42.36153395,-71.10799545,history,political; text; writing; history,https://www.cambridgema.gov/-/media/Images/artscouncil/publicartwebsite/2021publicartmap/Powell_CAC07056_Bergman.JPG,Cambridgeport,Dana Park,history
Untitled (Round Landing Bird),Juliet Kepes,42.39971331,-71.1327105,animal,bird; animal; wings; soar; fly; flight,https://www.cambridgema.gov/-/media/Images/artscouncil/publicartwebsite/2021publicartmap/Kepes_CAC8007f_PerspectivePhoto.JPG,North Cambridge,Clarendon Avenue Playground,animal
Celebrating the Marshland (b),Lilli Ann Rosenberg,42.36373919,-71.10372709,nature,nature; beach; wetland; outdoors; land; flora; fauna,https://www.cambridgema.gov/-/media/Images/artscouncil/publicartwebsite/2021publicartmap/CAC_82_03_Rosenberg.JPG,Cambridgeport,Cambridge Public Library- Central Square Branch,nature
Untitled (Prionis Beetle),Nancy Webb,42.36610423,-71.07659384,nature,insect; beetle; nature; tiny; treasure; look close,https://www.cambridgema.gov/-/media/Images/artscouncil/publicartwebsite/2021publicartmap/CAC_92_03_6_Webb.jpg,East Cambridge,Charles Park,nature
The Late Flower Alphabet: Gate,Murray Dewart,42.36758135,-71.11049955,abstract,abstract; symbol; garden; plant; grow; nurture,https://www.cambridgema.gov/-/media/Images/artscouncil/publicartwebsite/2021publicartmap/Dewart_TheLateFlowerAlphabet_a_Gate.jpg,Riverside,Franklin Street Park,abstract
Untitled (Large tree with birds),Lilli Ann Rosenberg,42.37213055,-71.08727703,community,neighborhood; family; community; city; tree; nature; bird; animal; fish; sports; truck,https://www.cambridgema.gov/-/media/Images/artscouncil/publicartwebsite/2021publicartmap/CAC7905h_LargeTreeWithBirds_Rosenberg_MillersRiver_2019.JPG,East Cambridge,Millers River Apartments,community
Beach Fragments (g),David Phillips,42.36935557,-71.07562715,nature,beach; water; stone; nature; music; symbol; feet; hands; ocean; sea;,https://www.cambridgema.gov/-/media/Images/artscouncil/publicartwebsite/2021publicartmap/Phillips_CAC8603g_BeachFragments.JPG,East Cambridge,Lechmere Canal Park,nature
Stroll in the Rain,Dominic Michael Killiany,42.38656,-71.13674,landscape,painting; digifuse; color; shape,,Neighborhood Nine,"Danehy Park, Louis A. DePasquale Universal Design Playground",landscape
Drawn Water (Iron pipe),Mags Harries & Lajos Heder,42.38353762,-71.14410553,water,water; city; pipe; play; spirit; fun,https://www.cambridgema.gov/-/media/Images/artscouncil/publicartwebsite/2021publicartmap/CAC_02_01d_HarriesMags_HeiderLajos_DrawnWater.jpg,West Cambridge,Walter Sullivan Water Facility,water
Revolutionary Figures (Male Figure),Madeleine Lord,42.35631057,-71.10391411,history,history; revolution; steel; metal; activism,https://www.cambridgema.gov/-/media/Images/artscouncil/publicartwebsite/2021publicartmap/Lord_CAC87043_RevolutionaryFigures.JPG,Cambridgeport,Fort Washington Park,history
Untitled,Nancy O'Neil,42.38234493,-71.11637995,light,"glass, color, light",https://www.cambridgema.gov/-/media/Images/artscouncil/publicartwebsite/2021publicartmap/CAC_96_01b_ONeil.JPG,Agassiz,Maria L. Baldwin Elementary School,light
Drawn Water (Valve plate),Mags Harries & Lajos Heder,42.37497472,-71.11099508,water,water; eye; play; spirit; fun,https://www.cambridgema.gov/-/media/Images/artscouncil/publicartwebsite/2021publicartmap/HarriesHeder_CAC0201h_CRLS.jpg,Mid-Cambridge,Cambridge Rindge & Latin High School,water
One Seasonal Cycle in a Temperate Zone (Autumn) (Winter),Lisa Houck,42.36673916,-71.10622013,nature,Trees; nature; abstract; color,https://www.cambridgema.gov/-/media/Images/artscouncil/publicartwebsite/2021publicartmap/Houck_CAC9591cd_OneSeason.jpg,Riverside,Cityside Senior Center,nature
Untitled (Ground paver with sturgeon),William Reimann,42.3676353,-71.11487061,animal,fish; nature; animal; critter; creature; water; swim,https://www.cambridgema.gov/-/media/Images/artscouncil/publicartwebsite/2021publicartmap/CAC_99_08_p_Reimann.jpg,Riverside,Corporal Burns Park,animal
Untitled (Brine Tank Murals),Monique Aimee,42.38753034,-71.13330857,community,community; park; recreation; nature; outdoors; people,https://www.cambridgema.gov/-/media/Images/artscouncil/publicartwebsite/2021publicartmap/Aimee_CACPN_PerspectivePhoto.JPG,Neighborhood Nine,St. Peter's Field,community
Untitled (Cabbage Butterfly and Chicory),Nancy Webb,42.3664338,-71.07637106,nature,insect; butterfly; plant; flower; nature; tiny; treasure; look close,https://www.cambridgema.gov/-/media/Images/artscouncil/publicartwebsite/2021publicartmap/CAC_92_03_39_Webb.jpg,East Cambridge,Charles Park,nature
Spiral (Snail),David Phillips,42.37202711,-71.11520654,insect,snail; nature; insect,https://www.cambridgema.gov/-/media/Images/artscouncil/publicartwebsite/2021publicartmap/Phillips_CAC970207_Spiral.jpg,Mid-Cambridge,Quincy Square,insect
"Drawn Water (bronze pipes, outdoor drinking fountain, circle gate)",Mags Harries & Lajos Heder,42.38353762,-71.14410553,water,water; view; city; pipe; play; spirit; fun,https://www.cambridgema.gov/-/media/Images/artscouncil/publicartwebsite/2021publicartmap/CAC_02_01g_HarriesMags_HeiderLajos_DrawnWater.jpg,West Cambridge,Walter Sullivan Water Facility,water
Drawn Water (Valve plate),Mags Harries & Lajos Heder,42.36632968,-71.09579526,water,water; ice; play; spirit; fun,https://www.cambridgema.gov/-/media/Images/artscouncil/publicartwebsite/2021publicartmap/HarriesHeder_CAC0201p_FletcherMaynard.jpg,The Port,Fletcher-Maynard Elementary Academy,water
Levitated Stone (Frog drain grate South),David Phillips,42.36112621,-71.10772609,animal,frog; animal; fountain; outdoors; land; flora; fauna; nature,https://www.cambridgema.gov/-/media/Images/artscouncil/publicartwebsite/2021publicartmap/Phillips_LevitatedStones_52.JPG,Cambridgeport,Dana Park,animal
Spiral (Snail),David Phillips,42.37236175,-71.11551541,insect,snail; nature; insect,https://www.cambridgema.gov/-/media/Images/artscouncil/publicartwebsite/2021publicartmap/Phillips_CAC970219_Spiral.jpg,Mid-Cambridge,Quincy Square,insect
The Moses Mosaic,David Fichter,42.36821294,-71.10082102,community,community; children; cambridge,https://www.cambridgema.gov/-/media/Images/artscouncil/publicartwebsite/2021publicartmap/Fichter_CACMoses_PerspectivePhoto.jpg,,Moses Youth Center,community
Spiral (Snail),David Phillips,42.37222345,-71.11539122,insect,snail; nature; insect,https://www.cambridgema.gov/-/media/Images/artscouncil/publicartwebsite/2021publicartmap/Phillips_CAC970216_Spiral.jpg,Mid-Cambridge,Quincy Square,insect
Untitled (Landing Bird),Juliet Kepes,42.39972435,-71.13262556,animal,bird; animal; wings; soar; fly; flight,https://www.cambridgema.gov/-/media/Images/artscouncil/publicartwebsite/2021publicartmap/Kepes_CAC8007c_PerspectivePhoto.JPG,North Cambridge,Clarendon Avenue Playground,animal
Untitled (Ant),Nancy Webb,42.36689141,-71.07646526,nature,insect; ant; nature; tiny; treasure; look close,https://www.cambridgema.gov/-/media/Images/artscouncil/publicartwebsite/2021publicartmap/CAC_92_03_20_Webb.jpg,East Cambridge,Charles Park,nature
Sidewalk Histories: Clark & Sons,Mike Mandel,42.35611544,-71.1092646,community,history; neighborhood; community,https://www.cambridgema.gov/-/media/Images/artscouncil/publicartwebsite/2021publicartmap/CAC_10_01_2_Mandel.jpg,Cambridgeport,Brookline Street (119-222 ),community
Route 2 East,Dominic Michael Killiany,42.38662,-71.136736,landscape,painting; digifuse; color; shape,,Neighborhood Nine,"Danehy Park, Louis A. DePasquale Universal Design Playground",landscape
Rei,Jill Slosberg-Ackerman,42.3671932,-71.09681207,animal,squirrel; animal; trellis; plant,https://www.cambridgema.gov/-/media/Images/artscouncil/publicartwebsite/2021publicartmap/cac_04_03_slosbergackerman.JPG,The Port,Squirrel Brand Park,animal
Untitled (Robin bird and road maps from 1700),Nancy O'Neil,42.38234493,-71.11637995,light,"glass, color, light",https://www.cambridgema.gov/-/media/Images/artscouncil/publicartwebsite/2021publicartmap/CAC_96_01d_ONeil.JPG,Agassiz,Maria L. Baldwin Elementary School,light
Untitled (Ant and Lily Leaf),Nancy Webb,42.36645964,-71.07634838,nature,insect; ant; plant; flower; nature; tiny; treasure; look close,https://www.cambridgema.gov/-/media/Images/artscouncil/publicartwebsite/2021publicartmap/CAC_92_03_31_Webb.jpg,East Cambridge,Charles Park,nature
Untitled (bollards),Robin Shores,42.37071164,-71.10427452,children,body language; sports; feet; shoes; children,https://www.cambridgema.gov/-/media/Images/artscouncil/publicartwebsite/2021publicartmap/Shores_CAC8112a.JPG,Mid-Cambridge,"King Open School (until 2020), the Ola Portuguese Dual Language Immersion Program",children
Drawn Water (Valve plate),Mags Harries & Lajos Heder,42.3735306,-71.12122048,water,water; well; play; spirit; fun,https://www.cambridgema.gov/-/media/Images/artscouncil/publicartwebsite/2021publicartmap/HarriesHeder_CAC0201v_Brattle.jpg,West Cambridge,Brattle Square,water
Beacon of Color (b),Nancy Simonds,42.36869395,-71.07772163,abstract,abstract; shape; color,https://www.cambridgema.gov/-/media/Images/artscouncil/publicartwebsite/2021publicartmap/CAC_11_01b_Simonds.jpg,East Cambridge,First Street Garage,abstract
Water for All (2),Laura Baring-Gould,42.38898056,-71.14915059,nature,water; nature; animal; insect; frog; turtle; plant; creature; critter,https://www.cambridgema.gov/-/media/Images/artscouncil/publicartwebsite/2021publicartmap/BaringGould_WaterForAll_02.JPG,Cambridge Highlands,Neville Manor Community Gardens,nature
Floating Stones (Block),Edward Levine,42.38719942,-71.13363791,abstract,stone; abstract; landscape,https://www.cambridgema.gov/-/media/Images/artscouncil/publicartwebsite/2021publicartmap/CAC_92_02_Levine.JPG,Neighborhood Nine,Roethlisberger Park,abstract
Untitled (Square eclipse),Lilli Ann Rosenberg,42.37809752,-71.15233192,children,play; kids; children; education; community,https://www.cambridgema.gov/-/media/Images/artscouncil/publicartwebsite/2021publicartmap/Rosenberg_CAC9505_SquareEclipse_PerspectivePhoto.JPG,Strawberry Hill,Haggerty School,children
Untitled (Man on cart),Lilli Ann Rosenberg,42.3720742,-71.0873036,community,neighborhood; family; community; city; tree; nature; bird; animal; fish; sports; truck,https://www.cambridgema.gov/-/media/Images/artscouncil/publicartwebsite/2021publicartmap/CAC7905r_ManOnCart_Rosenberg_MillersRiver_2019.JPG,East Cambridge,Millers River Apartments,community
Flag Gate (a),Virginia Gunther,42.39668854,-71.14308844,entryway,flag; metal; entryway,https://www.cambridgema.gov/-/media/Images/artscouncil/publicartwebsite/2021publicartmap/Gunther_CAC9705a_FlagGate.JPG,North Cambridge,Minuteman Commuter Bikeway,entryway
Revolutionary Figures (Female Figure),Madeleine Lord,42.35670227,-71.10418642,history,history; revolution; metal; activism,https://www.cambridgema.gov/-/media/Images/artscouncil/publicartwebsite/2021publicartmap/Lord_CAC87041_RevolutionaryFigures.JPG,Cambridgeport,Fort Washington Park,history
Untitled (Cricket),Nancy Webb,42.36610075,-71.07661527,nature,insect; cricket; nature; tiny; treasure; look close,https://www.cambridgema.gov/-/media/Images/artscouncil/publicartwebsite/2021publicartmap/CAC_92_03_9b_Webb.jpg,East Cambridge,Charles Park,nature
Town Green: Puritan/Lawnmower/Longboat,Michael Glier,42.37007904,-71.10338243,community,"about Cambridge; city; drawing, community; civic; government; democracy",https://www.cambridgema.gov/-/media/Images/artscouncil/publicartwebsite/2021publicartmap/Glier_06a_TownGreen_puritan.jpg,Mid-Cambridge,City Hall Annex,community
Turtles,Lilli Ann Rosenberg,42.38283463,-71.1164841,animal,turtle; animal; ocean; water; sea; sea creature,https://www.cambridgema.gov/-/media/Images/artscouncil/publicartwebsite/2021publicartmap/CAC_82_04_Rosenberg.jpg,Agassiz,Edward Alden Park,animal
Spiral,David Phillips,42.37219131,-71.1153047,nature,snail; nature; insect; bench; boulder; stone; fibonacci,https://www.cambridgema.gov/-/media/Images/artscouncil/publicartwebsite/2021publicartmap/Phillips_CAC970201_Spiral.JPG,Mid-Cambridge,Quincy Square,nature
Porter Square Landscape Design (Landscape wall),Toshihiro Katayama,42.38891881,-71.11937644,land design,abstract; land design; color; line; shape,https://www.cambridgema.gov/-/media/Images/artscouncil/publicartwebsite/2021publicartmap/Katayama_CAC0601_PorterSquareLandscapeDesign.jpg,North Cambridge,Porter Square Shopping Center,land design
A Long Story,Lynn Basa,42.36531565,-71.10544015,light,color; light; glass,https://www.cambridgema.gov/-/media/Images/artscouncil/publicartwebsite/2021publicartmap/Basa_ALongStory_18.jpg,Riverside,Alice K. Wolf Center,light
Untitled (Column with herring gull),William Reimann,42.36765512,-71.11605671,animal,bird; nature; animal; critter; creature,https://www.cambridgema.gov/-/media/Images/artscouncil/publicartwebsite/2021publicartmap/CAC_99_08_d_Reimann.jpg,Riverside,Corporal Burns Park,animal
Untitled (Daylily),Nancy Webb,42.36650829,-71.07649252,nature,plant; flower; nature; tiny; treasure; look close,https://www.cambridgema.gov/-/media/Images/artscouncil/publicartwebsite/2021publicartmap/CAC_92_03_14_Webb.jpg,East Cambridge,Charles Park,nature
Arbor,Gene Cauthen,42.36588089,-71.09395684,garden,garden; trellis; plant; grow; nurture,https://www.cambridgema.gov/-/media/Images/artscouncil/publicartwebsite/2021publicartmap/Cauthen_Arbor.jpg,The Port,Greene-Rose Heritage Park,garden
On the Other Side,Yeju Choi & Chat Trevieso,42.38650232,-71.13836568,land design,abstract; land design; play; spirit; fun; fantasy,https://www.cambridgema.gov/-/media/Images/artscouncil/publicartwebsite/2021publicartmap/ChoiTravieso_CAC1701_OntheOtherSide_TimothySchenck.jpg,Neighborhood Nine,Fern Street,land design
I'd Hammer Out Love,Judith Inglese,42.3629374,-71.1084235,children,kids; children; education; tree,https://www.cambridgema.gov/-/media/Images/artscouncil/publicartwebsite/2021publicartmap/CAC84_04_Inglese_HammerOutLove.JPG,Cambridgeport,The Amigos School,children
Floating Stones (Block),Edward Levine,42.38718583,-71.13361301,abstract,stone; abstract; landscape,https://www.cambridgema.gov/-/media/Images/artscouncil/publicartwebsite/2021publicartmap/CAC_92_02_Levine.JPG,Neighborhood Nine,Roethlisberger Park,abstract
Levitated Stone (frog drain grate North),David Phillips,42.36118134,-71.10770776,animal,frog; animal; water; outdoors; land; flora; fauna; nature,https://www.cambridgema.gov/-/media/Images/artscouncil/publicartwebsite/2021publicartmap/Phillips_LevitatedStones_15.JPG,Cambridgeport,Dana Park,animal
Levitated Stone (Small frog water fountain),David Phillips,42.36113243,-71.10763911,animal,frog; animal; fountain; outdoors; land; flora; fauna; nature,https://www.cambridgema.gov/-/media/Images/artscouncil/publicartwebsite/2021publicartmap/Phillips_LevitatedStones_13.JPG,Cambridgeport,Dana Park,animal
Untitled (Dandelions),Nancy Webb,42.36610299,-71.07666683,nature,plant; flower; nature; tiny; treasure; look close,https://www.cambridgema.gov/-/media/Images/artscouncil/publicartwebsite/2021publicartmap/CAC_92_03_1_Webb.jpg,East Cambridge,Charles Park,nature
Yerxa Road Underpass (South-side birds),Randal Thurston,42.39000783,-71.1292626,animal,bird; animal; wings; soar; fly; flight,https://www.cambridgema.gov/-/media/Images/artscouncil/publicartwebsite/2021publicartmap/CAC_06_03e_Thurston.jpg,Neighborhood Nine,Yerxa Road Underpass,animal
Landscape Frieze in Glass,Linda Lichtman,42.39104553,-71.122923,light,glass; color; light,https://www.cambridgema.gov/-/media/Images/artscouncil/publicartwebsite/2021publicartmap/Lichtman_CAC9002_LandscapeFrieze.jpg,North Cambridge,North Cambridge Senior Center,light
Untitled (Column with cardinal),William Reimann,42.3674261,-71.11485339,animal,bird; nature; animal; critter; creature,https://www.cambridgema.gov/-/media/Images/artscouncil/publicartwebsite/2021publicartmap/CAC_99_08_r_Reimann.JPG,Riverside,Corporal Burns Park,animal
Same Boat Now,Nova Jiang,42.37180853,-71.0913509,community,community; social justice; boat; water; kinetic; technology,https://www.cambridgema.gov/-/media/Images/artscouncil/publicartwebsite/2021publicartmap/jiang_cac1901_sameboat.jpg,East Cambridge,King Open/Cambridge Street Upper Schools Community Complex,community
Spiral (Boulder with bronze spiral inlay),David Phillips,42.37219131,-71.1153047,nature,stone; boulder; nature; fibonacci,https://www.cambridgema.gov/-/media/Images/artscouncil/publicartwebsite/2021publicartmap/Phillips_CAC970201_Spiral.JPG,Mid-Cambridge,Quincy Square,nature
Untitled (Campion and Fly),Nancy Webb,42.36686744,-71.07610286,nature,insect; fly; plant; flower; nature; tiny; treasure; look close,https://www.cambridgema.gov/-/media/Images/artscouncil/publicartwebsite/2021publicartmap/CAC_92_03_24_Webb.jpg,East Cambridge,Charles Park,nature
Town Green: Girl Reading in the Grass/Lawnmower(grass)/Longboat,Michael Glier,42.37007904,-71.10338243,community,"about Cambridge; city; drawing, community; civic; government; democracy",https://www.cambridgema.gov/-/media/Images/artscouncil/publicartwebsite/2021publicartmap/Glier_02a_TownGreen_girlreading.jpg,Mid-Cambridge,City Hall Annex,community
Untitled (Column with red-winged blackbird),William Reimann,42.36760822,-71.11488111,animal,bird; nature; animal; critter; creature,https://www.cambridgema.gov/-/media/Images/artscouncil/publicartwebsite/2021publicartmap/CAC_99_08_L_Reimann.JPG,Riverside,Corporal Burns Park,animal
Untitled (Geometric Pattern),György Kepes,42.35613123,-71.11274351,abstract,abstract,https://www.cambridgema.gov/-/media/Images/artscouncil/publicartwebsite/2021publicartmap/Kepes_CAC9902_UntitledGeometricPatterns.JPG,Cambridgeport,Morse School,abstract
Untitled (Praying Mantis and Cricket),Nancy Webb,42.36597619,-71.07670011,nature,insect; mantis; cricket; nature; tiny; treasure; look close,https://www.cambridgema.gov/-/media/Images/artscouncil/publicartwebsite/2021publicartmap/CAC_92_03_27_Webb.jpg,East Cambridge,Charles Park,nature
Artesian Well (Sculpture),Bland Hoke,42.38290497,-71.11838947,abstract,steel; abstract,https://www.cambridgema.gov/-/media/Images/artscouncil/publicartwebsite/2021publicartmap/Hoke_CAC17023_ArtesianWell.jpg,Agassiz,Sacramento Field,abstract
Untitled (a),David Judelson,42.36384818,-71.1036278,abstract,floor; library; abstract,https://www.cambridgema.gov/-/media/Images/artscouncil/publicartwebsite/2021publicartmap/CAC_79_09a_Judelson.JPG,Cambridgeport,Central Square Branch Library,abstract
Floating Stones (Block),Edward Levine,42.38722535,-71.13360047,abstract,stone; abstract; landscape,https://www.cambridgema.gov/-/media/Images/artscouncil/publicartwebsite/2021publicartmap/CAC_92_02_Levine.JPG,Neighborhood Nine,Roethlisberger Park,abstract
Rose Arbor,Bart Uchida,42.36743063,-71.09655153,nature,nature; flower; trellis; plant,https://www.cambridgema.gov/-/media/Images/artscouncil/publicartwebsite/2021publicartmap/CAC_04_02_Uchida.JPG,The Port,Squirrel Brand Park,nature
Gore Field (c),Robert Schelling,42.37291391,-71.0827842,abstract,abstract; shape; entryway; play; spirit; fun,https://www.cambridgema.gov/-/media/Images/artscouncil/publicartwebsite/2021publicartmap/Schilling_CAC0606c_GoreField.JPG,East Cambridge,Gold Star Mothers Park,abstract
Beacon of Color (g),Nancy Simonds,42.36868038,-71.0776091,abstract,abstract; shape; color,https://www.cambridgema.gov/-/media/Images/artscouncil/publicartwebsite/2021publicartmap/CAC_11_01g_Simonds.jpg,East Cambridge,First Street Garage,abstract
Taking Note: Heat Transfer,Mel Zeigler,42.37433328,-71.11155788,education,drawing; metal; education,https://www.cambridgema.gov/-/media/Images/artscouncil/publicartwebsite/2021publicartmap/Ziegler_CAC1302g_HeatTransfer.JPG,Mid-Cambridge,Cambridge Rindge and Latin School,education
Water For All (1),Laura Baring-Gould,42.38770334,-71.15398853,nature,water; nature; animal; insect; frog; turtle; plant; creature; critter,https://www.cambridgema.gov/-/media/Images/artscouncil/publicartwebsite/2021publicartmap/BaringGould_WaterForAll_01.jpg,Cambridge Highlands,Fresh Pond Reservation pathway,nature
Untitled (Coreopsis),Nancy Webb,42.36627524,-71.0766053,nature,plant; flower; nature; tiny; treasure; look close,https://www.cambridgema.gov/-/media/Images/artscouncil/publicartwebsite/2021publicartmap/CAC_92_03_11_Webb.jpg,East Cambridge,Charles Park,nature
Yerxa Road Underpass (North-side birds),Randal Thurston,42.39016178,-71.12920556,animal,bird; animal; wings; soar; fly; flight,https://www.cambridgema.gov/-/media/Images/artscouncil/publicartwebsite/2021publicartmap/CAC_06_03a_Thurston.jpg,North Cambridge,Yerxa Road Underpass,animal
Alley Cats,Judy McKie,42.37204729,-71.09005731,animal,bench; animal; cats; respite; seat; sit,https://www.cambridgema.gov/-/media/Images/artscouncil/publicartwebsite/2021publicartmap/McKie_CAC0501_Overall_PerspectivePhoto.JPG,Wellington-Harrington,Cambridge Public Library-Valente Branch,animal
Stone Work (Dragonflies),David Phillips,42.362179,-71.11513002,insect,dragonfly; insect; outdoors; land; flora; fauna; nature,https://www.cambridgema.gov/-/media/Images/artscouncil/publicartwebsite/2021publicartmap/Phillips_CAC8008c_StoneWork.JPG,Riverside,Riverside Press Park,insect
Porter Square Landscape Design,Toshihiro Katayama,42.38886891,-71.11930662,land design,abstract; land design; color; line; shape,https://www.cambridgema.gov/-/media/Images/artscouncil/publicartwebsite/2021publicartmap/Katayama_CAC0601_PorterSquareLandscapeDesign.jpg,North Cambridge,Porter Square Shopping Center,land design
Untitled (Bollard with sports balls),Robin Shores,42.37082878,-71.10461585,sports,sports; children,https://www.cambridgema.gov/-/media/Images/artscouncil/publicartwebsite/2021publicartmap/Shores_CAC8112a.JPG,Mid-Cambridge,"King Open School (until 2020), the Ola Portuguese Dual Language Immersion Program",sports
Untitled (Ground paver with water lilies),William Reimann,42.3676497,-71.11526786,animal,water lilies; nature; animal; critter; creature; water; plant,https://www.cambridgema.gov/-/media/Images/artscouncil/publicartwebsite/2021publicartmap/CAC_99_08_g_Reimann.jpg,Riverside,Corporal Burns Park,animal
Untitled (House),Lilli Ann Rosenberg,42.37212308,-71.08727973,community,neighborhood; family; community; city; tree; nature; bird; animal; fish; sports; truck,https://www.cambridgema.gov/-/media/Images/artscouncil/publicartwebsite/2021publicartmap/CAC7905i_House_Rosenberg_MillersRiver_2019.JPG,East Cambridge,Millers River Apartments,community
Dana Park Quotes (Orne),John Powell,42.36129145,-71.1076211,history,political; text; writing; history,https://www.cambridgema.gov/-/media/Images/artscouncil/publicartwebsite/2021publicartmap/Powell_CAC07051_Orne.JPG,Cambridgeport,Dana Park,history
Untitled (Owls),György Kepes & Juliet Kepes,42.35613187,-71.11274411,animal,animal; take flight; bird; color,https://www.cambridgema.gov/-/media/Images/artscouncil/publicartwebsite/2021publicartmap/Kepes_UntitledOwls_01.JPG,Cambridgeport,Morse School,animal
Levitated Stone (Fountain),David Phillips,42.36119239,-71.10774152,nature,nature; stone; tree; branch; water; fountain; outdoors; land; flora; fauna,https://www.cambridgema.gov/-/media/Images/artscouncil/publicartwebsite/2021publicartmap/Phillips_LevitatedStones_06.JPG,Cambridgeport,Dana Park,nature
"Tribute to Martin Luther King, Jr.",Lilli Ann Rosenberg,42.36402097,-71.10391269,community,memorial; martin luther king; community; activism,https://www.cambridgema.gov/-/media/Images/artscouncil/publicartwebsite/2021publicartmap/Rosenberg_CAC8530_MLK.JPG,Cambridgeport,Cambridge Public Library- Central Square Branch,community
A Public Display of Intervention (c),Adam Simha,42.36343842,-71.09825719,bench,bench; abstract; respite; seat; sit,https://www.cambridgema.gov/-/media/Images/artscouncil/publicartwebsite/2021publicartmap/CAC_15_01c_Simha.jpg,The Port,Charles O. Dance Jr. Square,bench
Stroll in the Rain,Dominic Michael Killiany,42.38657,-71.13674,landscape,painting; digifuse; color; shape,,Neighborhood Nine,"Danehy Park, Louis A. DePasquale Universal Design Playground",landscape
Gateway,Mags Harries,42.36956585,-71.08664012,play,play; education,https://www.cambridgema.gov/-/media/Images/artscouncil/publicartwebsite/2021publicartmap/Harries_CAC_83_06_Gateway.jpg,East Cambridge,Kennedy-Longfellow School,play
Untitled (Upright black dog),Jay Coogan,42.37145624,-71.09216579,animal,cats; dogs; animal; critter; creature,,Wellington-Harrington,Donnelly Field,animal
Play is Child's Work,Judith,42.36652574,-71.09577486,play,people; take flight; trees; children; kids; play,https://www.cambridgema.gov/-/media/Images/artscouncil/publicartwebsite/2021publicartmap/Inglese_CAC8304_PlayIs_PerspectivePhoto.jpg,The Port,Fletcher-Maynard Academy,play
Hopscotch,Tory Fair,42.36623526,-71.09500128,play,play; respite; seat; sit; sports,https://www.cambridgema.gov/-/media/Images/artscouncil/publicartwebsite/2021publicartmap/Fair_CAC0703_Hopscotch.JPG,The Port,Greene-Rose Heritage Park,play
They Settled Near a Marsh,Lisa Houck,42.36673931,-71.10622162,nature,Trees; nature; abstract; color,https://www.cambridgema.gov/-/media/Images/artscouncil/publicartwebsite/2021publicartmap/Houck_CAC9503_WeSettledNearMarsh.jpg,Riverside,Cityside Senior Center,nature
Beacon of Color (j),Nancy Simonds,42.36879356,-71.07747054,abstract,abstract; shape; color,https://www.cambridgema.gov/-/media/Images/artscouncil/publicartwebsite/2021publicartmap/CAC_11_01j_Simonds.JPG,East Cambridge,First Street Garage,abstract
Spiral (Bench),David Phillips,42.37219553,-71.11533262,bench,bench,https://www.cambridgema.gov/-/media/Images/artscouncil/publicartwebsite/2021publicartmap/Phillips_CAC970202_Spiral.JPG,Mid-Cambridge,Quincy Square,bench
Untitled (Cabbage Butterfly),Nancy Webb,42.36609973,-71.07664637,nature,insect; butterfly; nature; tiny; treasure; look close,https://www.cambridgema.gov/-/media/Images/artscouncil/publicartwebsite/2021publicartmap/CAC_92_03_2_Webb.jpg,East Cambridge,Charles Park,nature
Spiral (Snail),David Phillips,42.37214804,-71.11514224,insect,snail; nature; insect,https://www.cambridgema.gov/-/media/Images/artscouncil/publicartwebsite/2021publicartmap/Phillips_CAC970211_Spiral.jpg,Mid-Cambridge,Quincy Square,insect
Spiral (Snail),David Phillips,42.37211799,-71.11531906,insect,snail; nature; insect,https://www.cambridgema.gov/-/media/Images/artscouncil/publicartwebsite/2021publicartmap/Phillips_CAC970206_Spiral.jpg,Mid-Cambridge,Quincy Square,insect
Untitled (Prionus beetle and pachysandra leaf),Nancy Webb,42.36644503,-71.07638123,nature,plant; flower; nature; tiny; treasure; look close,https://www.cambridgema.gov/-/media/Images/artscouncil/publicartwebsite/2021publicartmap/CAC_92_03_38_Webb.jpg,East Cambridge,Charles Park,nature
Sidewalk Histories: Tom & Joe,Mike Mandel,42.36088376,-71.10439298,history,history; neighborhood; children; kids; family; community,https://www.cambridgema.gov/-/media/Images/artscouncil/publicartwebsite/2021publicartmap/CAC_10_01_7_Mandel.jpg,Cambridgeport,Brookline Street (119-222 ),history
Taking Note: Food Cycle,Mel Zeigler,42.37433328,-71.11155788,education,drawing; metal; education,https://www.cambridgema.gov/-/media/Images/artscouncil/publicartwebsite/2021publicartmap/Ziegler_CAC1302d_FoodCycle.JPG,Mid-Cambridge,Cambridge Rindge and Latin School,education
Park Bench Group,Gene Cauthen,42.3643999,-71.09806772,community,community; neighborhood,https://www.cambridgema.gov/-/media/Images/artscouncil/publicartwebsite/2021publicartmap/Cauthen_BenchGroup.jpg,The Port,Pine Street “Tot Lot”,community
Dana Park Quotes,John Powell,42.36142282,-71.10779741,history,political; text; writing; history,https://www.cambridgema.gov/-/media/Images/artscouncil/publicartwebsite/2021publicartmap/Powell_CAC07051_Orne.JPG,Cambridgeport,Dana Park,history
Untitled (Ground pavers and columns),William Reimann,42.3676497,-71.11526786,animal,fish; water; swim; bird; nature; animal; critter; creature; plant,https://www.cambridgema.gov/-/media/Images/artscouncil/publicartwebsite/2021publicartmap/CAC_99_08_b_Reimann.JPG,Riverside,Corporal Burns Park,animal
Beach Fragments (a),David Phillips,42.36935174,-71.07557874,nature,beach; water; stone; nature; music; symbol; feet; hands; ocean; sea;,https://www.cambridgema.gov/-/media/Images/artscouncil/publicartwebsite/2021publicartmap/Phillips_CAC8603a_BeachFragments.JPG,East Cambridge,Lechmere Canal Park,nature
Taylor Square,Paul Ramirez Jonas,42.38399408,-71.12951724,community,community; access; key; park; treasure; public; tiny; look close,https://www.cambridgema.gov/-/media/Images/artscouncil/publicartwebsite/2021publicartmap/Jonas_CAC0503_TaylorSquare.JPG,Neighborhood Nine,Taylor Park,community
Levitated Stone (Small frog water fountain),David Phillips,42.36113136,-71.10764373,animal,frog; animal; fountain; outdoors; land; flora; fauna; nature,https://www.cambridgema.gov/-/media/Images/artscouncil/publicartwebsite/2021publicartmap/Phillips_LevitatedStones_13.JPG,Cambridgeport,Dana Park,animal
Drawn Water (Iron pipe),Mags Harries & Lajos Heder,42.38350692,-71.14404463,water,water; city; pipe; play; spirit; fun,https://www.cambridgema.gov/-/media/Images/artscouncil/publicartwebsite/2021publicartmap/CAC_02_01c_HarriesMags_HeiderLajos_DrawnWater.jpg,West Cambridge,Walter Sullivan Water Facility,water
Spiral (Snail),David Phillips,42.37222783,-71.11514671,insect,snail; nature; insect,https://www.cambridgema.gov/-/media/Images/artscouncil/publicartwebsite/2021publicartmap/Phillips_CAC970213_Spiral.jpg,Mid-Cambridge,Quincy Square,insect
"Dr. Martin Luther King, Jr. Memorial",Vusumuzi Maduna,42.36672098,-71.11312542,history,martin luther king; black artist; memorial; political; history,https://www.cambridgema.gov/-/media/Images/artscouncil/publicartwebsite/2021publicartmap/cac_71_01_maduna_mlkmemorial.JPG,Riverside,"Martin Luther King, Jr. School/Putnam Avenue Upper School",history
Untitled (Column with red tail hawk),William Reimann,42.36768017,-71.11606562,animal,bird; nature; animal; critter; creature,https://www.cambridgema.gov/-/media/Images/artscouncil/publicartwebsite/2021publicartmap/CAC_99_08_b_Reimann.JPG,Riverside,Corporal Burns Park,animal
Untitled (Buildings),Lilli Ann Rosenberg,42.3720903,-71.08729479,community,neighborhood; family; community; city; tree; nature; bird; animal; fish; sports; truck,https://www.cambridgema.gov/-/media/Images/artscouncil/publicartwebsite/2021publicartmap/CAC7905n_House_Rosenberg_MillersRiver_2019.JPG,East Cambridge,Millers River Apartments,community
Floating Stones (Block),Edward Levine,42.38723669,-71.13365956,abstract,stone; abstract; landscape,https://www.cambridgema.gov/-/media/Images/artscouncil/publicartwebsite/2021publicartmap/CAC_92_02_Levine.JPG,Neighborhood Nine,Roethlisberger Park,abstract
Untitled (Japanese Beetle and Viburnum Leaf),Nancy Webb,42.36659044,-71.07647594,nature,insect; beetle; plant; flower; nature; tiny; treasure; look close,https://www.cambridgema.gov/-/media/Images/artscouncil/publicartwebsite/2021publicartmap/CAC_92_03_32_Webb.jpg,East Cambridge,Charles Park,nature
Drawn Water (Valve plate),Mags Harries & Lajos Heder,42.39264889,-71.127929,water,water; cloud; rain; play; spirit; fun,https://www.cambridgema.gov/-/media/Images/artscouncil/publicartwebsite/2021publicartmap/HarriesHeder_CAC0201i_Peabody.jpg,North Cambridge,Andrew Peabody Elementary School,water
Untitled (Plants and Insects),Nancy Webb,42.36646487,-71.07650372,nature,insect; butterfly; plant; flower; nature; tiny; treasure; look close,https://www.cambridgema.gov/-/media/Images/artscouncil/publicartwebsite/2021publicartmap/CAC_92_03_7_Webb.jpg,East Cambridge,Charles Park,nature
Drawn Water (Valve plate),Mags Harries & Lajos Heder,42.36938004,-71.09757722,water,water; ice; play; spirit; fun,https://www.cambridgema.gov/-/media/Images/artscouncil/publicartwebsite/2021publicartmap/HarriesHeder_CAC0201j_Cambridgeport.jpg,The Port,Cambridgeport Elementary School,water
Untitled (Fritillary Butterfly),Nancy Webb,42.3660998,-71.07659442,nature,insect; butterfly; nature; tiny; treasure; look close,https://www.cambridgema.gov/-/media/Images/artscouncil/publicartwebsite/2021publicartmap/CAC_92_03_5_Webb.jpg,East Cambridge,Charles Park,nature
Untitled (Bee),Nancy Webb,42.36689645,-71.07646419,nature,insect; bee; nature; tiny; treasure; look close,https://www.cambridgema.gov/-/media/Images/artscouncil/publicartwebsite/2021publicartmap/CAC_92_03_19_Webb.jpg,East Cambridge,Charles Park,nature
Porter Square Landscape Design (Portrait wall),Toshihiro Katayama,42.38890768,-71.11926035,land design,abstract; land design; color; line; shape,https://www.cambridgema.gov/-/media/Images/artscouncil/publicartwebsite/2021publicartmap/Katayama_CAC0601_PorterSquareLandscapeDesign.jpg,North Cambridge,Porter Square Shopping Center,land design
Turnaround/Surround,Mierle Ukeles,42.38891604,-71.13540892,land design,gathering; land design; bench; abstract; play; plant; nature; garden; recycle; biking; bike path,https://www.cambridgema.gov/-/media/Images/artscouncil/publicartwebsite/2021publicartmap/CAC_99_10_1_Ukeles.jpg,Neighborhood Nine,Danehy Park,land design
Children's Collaborative Mural,Jack Gregory & Joan Wye,42.36652345,-71.09577371,children,children; play; insect,https://www.cambridgema.gov/-/media/Images/artscouncil/publicartwebsite/2021publicartmap/cac_84_03a_gregorywye.jpg,The Port,Fletcher-Maynard Academy,children
Untitled (Buildings and train),Lilli Ann Rosenberg,42.37207428,-71.08730125,community,neighborhood; family; community; city; tree; nature; bird; animal; fish; sports; truck,https://www.cambridgema.gov/-/media/Images/artscouncil/publicartwebsite/2021publicartmap/CAC7905q_BuildingsandTrain_Rosenberg_MillersRiver.JPG,East Cambridge,Millers River Apartments,community
Taking Note: Path,Mel Zeigler,42.37433328,-71.11155788,school,drawing; metal; school,https://www.cambridgema.gov/-/media/Images/artscouncil/publicartwebsite/2021publicartmap/Ziegler_CAC1302b_Path.JPG,Mid-Cambridge,Cambridge Rindge and Latin School,school
Drawn Water (Valve plate),Mags Harries & Lajos Heder,42.3697126,-71.08669357,water,water; swimming; frog; play; spirit; fun,https://www.cambridgema.gov/-/media/Images/artscouncil/publicartwebsite/2021publicartmap/HarriesHeder_CAC0201m_KennedyLongfellow.jpg,East Cambridge,Kennedy-Longfellow Community School,water
Workers,Gene Cauthen,42.3688016,-71.10010299,community,history; neighborhood; community; labor,https://www.cambridgema.gov/-/media/Images/artscouncil/publicartwebsite/2021publicartmap/Cauthen_Workers.jpg,The Port,Sennott Park,community
Levitated Stone (Small frog water fountain),David Phillips,42.36113714,-71.10764936,animal,frog; animal; fountain; outdoors; land; flora; fauna; nature,https://www.cambridgema.gov/-/media/Images/artscouncil/publicartwebsite/2021publicartmap/Phillips_LevitatedStones_13.JPG,Cambridgeport,Dana Park,animal
The Bluefish is Good Tonight,Lisa Houck,42.37402961,-71.10102151,nature,water; fish; nature; abstract; ocean; water; sea; sea creature,https://www.cambridgema.gov/-/media/Images/artscouncil/publicartwebsite/2021publicartmap/CAC_87_07_Houck.JPG,Wellington-Harrington,Cambridge Health Alliance (Inman Square),nature
Spiral (Snail),David Phillips,42.3723166,-71.11556773,insect,snail; nature; insect,https://www.cambridgema.gov/-/media/Images/artscouncil/publicartwebsite/2021publicartmap/Phillips_CAC970220_Spiral.jpg,Mid-Cambridge,Quincy Square,insect
Drawn Water (Valve plate),Mags Harries & Lajos Heder,42.37086626,-71.10459978,water,water; swimming; fish; play; spirit; fun,https://www.cambridgema.gov/-/media/Images/artscouncil/publicartwebsite/2021publicartmap/HarriesHeder_CAC0201n_FayetteSt.JPG,Mid-Cambridge,King Open School,water
Untitled (Diving Bird),Juliet Kepes,42.39971457,-71.13261113,animal,bird; animal; wings; soar; fly; flight,https://www.cambridgema.gov/-/media/Images/artscouncil/publicartwebsite/2021publicartmap/Kepes_CAC8007b_PerspectivePhoto.JPG,North Cambridge,Clarendon Avenue Playground,animal
Untitled (Moses Youth Center Collaborative),Marc Cooper,42.36832183,-71.10067237,Abstract,Abstract; garden; surf; shape,https://www.cambridgema.gov/-/media/Images/artscouncil/publicartwebsite/2021publicartmap/Cooper_Untitled_01.jpg,,Moses Youth Center,abstract
Spiral (Snail),David Phillips,42.37215484,-71.11536112,insect,snail; nature; insect,https://www.cambridgema.gov/-/media/Images/artscouncil/publicartwebsite/2021publicartmap/Phillips_CAC970217_Spiral.jpg,Mid-Cambridge,Quincy Square,insect
Untitled (Column with black capped chickadee),William Reimann,42.36763122,-71.11492281,animal,bird; nature; animal; critter; creature,https://www.cambridgema.gov/-/media/Images/artscouncil/publicartwebsite/2021publicartmap/CAC_99_08_h_Reimann.jpg,Riverside,Corporal Burns Park,animal
First African Safari,Dominic Michael Killiany,42.38655,-71.136761,animals,painting; digifuse; color; shape; animal,,Neighborhood Nine,"Danehy Park, Louis A. DePasquale Universal Design Playground",animal
Centanni Way Garden Sculpture (Lily),Dimitri Gerakaris,42.37028589,-71.07954502,nature,metal; flower; plant; nature; garden; grow; nurture,https://www.cambridgema.gov/-/media/Images/artscouncil/publicartwebsite/2021publicartmap/Gerakaris_CAC8901_CentanniWayGardenSculpture.JPG,East Cambridge,Centanni Way Park/Bullfinch Sq,nature
Thunderhead,Vivian Beer,42.35792033,-71.10783673,bench,steel; bench; cloud; play; spirit; fun; fantasy,https://www.cambridgema.gov/-/media/Images/artscouncil/publicartwebsite/2021publicartmap/CAC_12_01_Beer.JPG,Cambridgeport,David Nunes Park,bench
Drawn Water (Valve plate),Mags Harries & Lajos Heder,42.38414329,-71.13978762,water,water; frog; play; spirit; fun,https://www.cambridgema.gov/-/media/Images/artscouncil/publicartwebsite/2021publicartmap/HarriesHeder_CAC0201s_Tobin.JPG,West Cambridge,John M.Tobin Montessori Elementary School,water
Turnaround/Surround (Glassphalt Path),Mierle Ukeles,42.38891604,-71.13540892,land design,recycle; land design; biking; bike path,https://www.cambridgema.gov/-/media/Images/artscouncil/publicartwebsite/2021publicartmap/CAC_99_10_4_Ukeles.JPG,Neighborhood Nine,Danehy Park,land design
The Late Flower Alphabet: The Eye of Buddha,Murray Dewart,42.3677378,-71.11054544,abstract,abstract; symbol; garden; plant; grow; nurture,https://www.cambridgema.gov/-/media/Images/artscouncil/publicartwebsite/2021publicartmap/Dewart_TheLateFlowerAlphabet_d_TheEyeofBuddha.jpg,Riverside,Franklin Street Park,abstract
Dana Park Quotes (Binstock),John Powell,42.3615904,-71.1078143,history,political; text; writing; history,https://www.cambridgema.gov/-/media/Images/artscouncil/publicartwebsite/2021publicartmap/Powell_CAC07054_Binstock.JPG,Cambridgeport,Dana Park,history
Untitled (Night heron and animal tracks),Nancy O'Neil,42.38234493,-71.11637995,light,"glass, color, light",https://www.cambridgema.gov/-/media/Images/artscouncil/publicartwebsite/2021publicartmap/CAC_96_01e_ONeil.JPG,Agassiz,Maria L. Baldwin Elementary School,light
Untitled (Campion and Fly),Nancy Webb,42.36688031,-71.07618249,nature,insect; fly; plant; flower; nature; tiny; treasure; look close,https://www.cambridgema.gov/-/media/Images/artscouncil/publicartwebsite/2021publicartmap/CAC_92_03_36_Webb.jpg,East Cambridge,Charles Park,nature
Floating Stones (Block),Edward Levine,42.38719406,-71.1336415,abstract,stone; abstract; landscape,https://www.cambridgema.gov/-/media/Images/artscouncil/publicartwebsite/2021publicartmap/CAC_92_02_Levine.JPG,Neighborhood Nine,Roethlisberger Park,abstract
Untitled (Cricket),Nancy Webb,42.36610112,-71.07662235,nature,insect; cricket; nature; tiny; treasure; look close,https://www.cambridgema.gov/-/media/Images/artscouncil/publicartwebsite/2021publicartmap/CAC_92_03_9a_Webb.jpg,East Cambridge,Charles Park,nature
Inner City Totem II,Vusumuzi Maduna,42.36454464,-71.09737266,abstract,abstract; black artist; african art; history,https://www.cambridgema.gov/-/media/Images/artscouncil/publicartwebsite/2021publicartmap/Maduna_8205_PerspectivePhoto.JPG,The Port,Margaret Fuller Neighborhood House,abstract
Untitled (Celestial map and Rose of Sharon),Nancy O'Neil,42.38234493,-71.11637995,light,"glass, color, light",https://www.cambridgema.gov/-/media/Images/artscouncil/publicartwebsite/2021publicartmap/CAC_96_01a_ONeil.JPG,Agassiz,Maria L. Baldwin Elementary School,light
Levitated Stone,David Phillips,42.36117321,-71.10766133,nature,nature; dragonfly; insect; frog; animal; fountain; water; tree; branch; stone; outdoors; land; flora; fauna,https://www.cambridgema.gov/-/media/Images/artscouncil/publicartwebsite/2021publicartmap/Phillips_LevitatedStones_06.JPG,Cambridgeport,Dana Park,nature
Hearth (Chairs),Ken Speiser,42.36612103,-71.09496842,bench,bench; brick; respite; seat; sit,https://www.cambridgema.gov/-/media/Images/artscouncil/publicartwebsite/2021publicartmap/speiser_cac0707ad_perspectivephoto.JPG,The Port,Greene-Rose Heritage Park,bench
Untitled (Lady's Mantle),Nancy Webb,42.36676604,-71.07643475,nature,plant; flower; nature; tiny; treasure; look close,https://www.cambridgema.gov/-/media/Images/artscouncil/publicartwebsite/2021publicartmap/CAC_92_03_15_Webb.jpg,East Cambridge,Charles Park,nature
Turnaround/Surround (Art Blocks),Mierle Ukeles,42.38898492,-71.13544865,land design,gathering; land design; bench; biking; bike path,https://www.cambridgema.gov/-/media/Images/artscouncil/publicartwebsite/2021publicartmap/CAC_99_10_1_Ukeles.jpg,Neighborhood Nine,Danehy Park,land design
A Public Display of Intervention (b),Adam Simha,42.36340287,-71.09814032,bench,bench; abstract; respite; seat; sit,https://www.cambridgema.gov/-/media/Images/artscouncil/publicartwebsite/2021publicartmap/CAC_15_01b_Simha.jpg,The Port,Charles O. Dance Jr. Square,bench
Untitled (Morse School Mural),Tomie Arai,42.35613263,-71.11274416,children,nature; people; city; kids; children,https://www.cambridgema.gov/-/media/Images/artscouncil/publicartwebsite/2021publicartmap/Arai_CAC9901.jpg,Cambridgeport,Morse School,children
Light Shadow: MLK,Christopher Janney,42.36672043,-71.11312618,play,interactive; sound; light; play,https://www.cambridgema.gov/-/media/Images/artscouncil/publicartwebsite/2021publicartmap/JanneyMLK2.jpg,Riverside,"Martin Luther King, Jr. School/Putnam Avenue Upper School",play
Sensory Hilltop,Mitch Ryerson,42.38651,-71.13646,nature,nature; bench; land; fun; hill,,Neighborhood Nine,"Danehy Park, Louis A. DePasquale Universal Design Playground",nature
Gore Field (d),Robert Schelling,42.37291024,-71.08278482,abstract,abstract; sports; basketball; shape; entryway; play; spirit; fun,https://www.cambridgema.gov/-/media/Images/artscouncil/publicartwebsite/2021publicartmap/Schilling_CAC0606d_GoreField.JPG,East Cambridge,Gold Star Mothers Park,abstract
